<?xml version="1.0" encoding="UTF-8"?>
<gpx xmlns:xsi="http://www.w3.org/2001/XMLSchema-instance" xmlns="http://www.topografix.com/GPX/1/1"
     xsi:schemaLocation="http://www.topografix.com/GPX/1/1 http://www.topografix.com/GPX/1/1/gpx.xsd" version="1.1"
     creator="Carl Johan Rehn">
    <metadata>
        <name>Akallastråket</name>
        <desc>GPX-koordinater för Wikipedia-artiklar.
        </desc>
        <author>
            <name>Carl Johan Rehn</name>
            <email id="care02" domain="gmail.com"/>
            <link href="https://github.com/carljohanrehn/hikepy-gpx"></link>
        </author>
        <copyright author="Carl Johan Rehn">
            <year>2016</year>
            <license>http://opendatacommons.org/licenses/odbl/1.0/</license>
        </copyright>
        <link href="http://www.openstreetmap.org/copyright/">
            <text>(c) OpenStreetMap contributors</text>
            <type>OpenStreetMap Copyright and License</type>
        </link>
    </metadata>
    <wpt lat="59.32636111" lon="18.07122222">
        <name>Ordenssalarna</name>
        <cmt>Stockholms slott. Kungl. Maj:ts orden.</cmt>
        <desc>Ordenssalarna</desc>
        <link href="http://sv.wikipedia.org/wiki/Ordenssalarna">
            <text>Ordenssalarna</text>
            <type>Wikipedia</type>
        </link>
    </wpt>
    <wpt lat="59.34027778" lon="18.04611111">
        <name>Eastmanfontänen</name>
        <cmt>Vasastan. Kodak. Fontäner i Stockholm.</cmt>
        <desc>Eastmanfontänen</desc>
        <link href="http://sv.wikipedia.org/wiki/Eastmanfontänen">
            <text>Eastmanfontänen</text>
            <type>Wikipedia</type>
        </link>
    </wpt>
    <wpt lat="59.33088889" lon="18.03790833">
        <name>Kronobergsbadet</name>
        <cmt>Sportanläggningar i Stockholms län. Kungsholmen. Illustrationsbehov-Stockholm. Badhus i Stockholm.</cmt>
        <desc>Kronobergsbadet</desc>
        <link href="http://sv.wikipedia.org/wiki/Kronobergsbadet">
            <text>Kronobergsbadet</text>
            <type>Wikipedia</type>
        </link>
    </wpt>
    <wpt lat="59.33611111" lon="18.00805556">
        <name>Hornsbergsdepån</name>
        <cmt>Byggnader på Kungsholmen. Lokaltrafikdepåer i Stockholm. Funktionalistisk arkitektur. Kristineberg.</cmt>
        <desc>Hornsbergsdepån</desc>
        <link href="http://sv.wikipedia.org/wiki/Hornsbergsdepån">
            <text>Hornsbergsdepån</text>
            <type>Wikipedia</type>
        </link>
    </wpt>
    <wpt lat="59.33395386" lon="18.03965187">
        <name>S:t Eriks ögonsjukhus</name>
        <cmt>Byggnader på Kungsholmen. Sjukhus i Stockholms län. Oftalmologi.</cmt>
        <desc>S:t Eriks ögonsjukhus</desc>
        <link href="http://sv.wikipedia.org/wiki/S:t_Eriks_ögonsjukhus">
            <text>S:t Eriks ögonsjukhus</text>
            <type>Wikipedia</type>
        </link>
    </wpt>
    <wpt lat="59.33125556" lon="18.06039444">
        <name>Klara skola</name>
        <cmt>Gymnasieskolor i Stockholm. Byggnader på Norrmalm. Utbildningsinstitutioner upplösta 1880.</cmt>
        <desc>Klara skola</desc>
        <link href="http://sv.wikipedia.org/wiki/Klara_skola">
            <text>Klara skola</text>
            <type>Wikipedia</type>
        </link>
    </wpt>
    <wpt lat="59.32536111" lon="18.06999722">
        <name>Cornelis Vreeswijkmuseet</name>
        <cmt>Ej längre existerande museer i Stockholm. Museer invigda 2000. Museer nedlagda 2011.</cmt>
        <desc>Cornelis Vreeswijkmuseet</desc>
        <link href="http://sv.wikipedia.org/wiki/Cornelis_Vreeswijkmuseet">
            <text>Cornelis Vreeswijkmuseet</text>
            <type>Wikipedia</type>
        </link>
    </wpt>
    <wpt lat="59.33333588" lon="18.05387497">
        <name>Kungsbron (fastighet)</name>
        <cmt>Byggnader uppförda av NCC. Byggnader på Norrmalm.</cmt>
        <desc>Kungsbron (fastighet)</desc>
        <link href="http://sv.wikipedia.org/wiki/Kungsbron_(fastighet)">
            <text>Kungsbron (fastighet)</text>
            <type>Wikipedia</type>
        </link>
    </wpt>
    <wpt lat="59.33472222" lon="18.04805556">
        <name>Barnhusviken</name>
        <cmt>Kungsholmen. Norrmalm. Stockholms geografi. Vasastan. Mälaren.</cmt>
        <desc>Barnhusviken</desc>
        <link href="http://sv.wikipedia.org/wiki/Barnhusviken">
            <text>Barnhusviken</text>
            <type>Wikipedia</type>
        </link>
    </wpt>
    <wpt lat="59.32586944" lon="18.07150556">
        <name>Obelisken i Stockholm</name>
        <cmt>Obelisker. Skulpturer i Gamla stan. Gamla stan. Minnesmärken i Sverige.</cmt>
        <desc>Obelisken i Stockholm</desc>
        <link href="http://sv.wikipedia.org/wiki/Obelisken_i_Stockholm">
            <text>Obelisken i Stockholm</text>
            <type>Wikipedia</type>
        </link>
    </wpt>
    <wpt lat="59.33805556" lon="18.035">
        <name>Porslinsbruket 29</name>
        <cmt>Byggnader i Vasastan.</cmt>
        <desc>Porslinsbruket 29</desc>
        <link href="http://sv.wikipedia.org/wiki/Porslinsbruket_29">
            <text>Porslinsbruket 29</text>
            <type>Wikipedia</type>
        </link>
    </wpt>
    <wpt lat="59.32575" lon="18.06975">
        <name>Trångsund, Stockholm</name>
        <cmt>Gator och torg i Gamla stan.</cmt>
        <desc>Trångsund, Stockholm</desc>
        <link href="http://sv.wikipedia.org/wiki/Trångsund,_Stockholm">
            <text>Trångsund, Stockholm</text>
            <type>Wikipedia</type>
        </link>
    </wpt>
    <wpt lat="59.32591667" lon="18.06166667">
        <name>Birger jarls torn</name>
        <cmt>Torn i Sverige. Byggnader på Riddarholmen. Birger jarl. Stockholms fasta försvar.</cmt>
        <desc>Birger jarls torn</desc>
        <link href="http://sv.wikipedia.org/wiki/Birger_jarls_torn">
            <text>Birger jarls torn</text>
            <type>Wikipedia</type>
        </link>
    </wpt>
    <wpt lat="59.36116667" lon="17.99594444">
        <name>Frösundaleden</name>
        <cmt>Ej uppdaterad 2014-09. Ej uppdaterad-samtliga. Gator och torg i Solna.</cmt>
        <desc>Frösundaleden</desc>
        <link href="http://sv.wikipedia.org/wiki/Frösundaleden">
            <text>Frösundaleden</text>
            <type>Wikipedia</type>
        </link>
    </wpt>
    <wpt lat="59.41275" lon="17.91196944">
        <name>Akalla by</name>
        <cmt>Hembygdsgårdar i Sverige. Gårdar i Sverige. Akalla.</cmt>
        <desc>Akalla by</desc>
        <link href="http://sv.wikipedia.org/wiki/Akalla_by">
            <text>Akalla by</text>
            <type>Wikipedia</type>
        </link>
    </wpt>
    <wpt lat="59.34583333" lon="17.99111111">
        <name>Huvudstabadet</name>
        <cmt>Utomhusbad i Sverige. Huvudsta.</cmt>
        <desc>Huvudstabadet</desc>
        <link href="http://sv.wikipedia.org/wiki/Huvudstabadet">
            <text>Huvudstabadet</text>
            <type>Wikipedia</type>
        </link>
    </wpt>
    <wpt lat="59.32851111" lon="18.06315556">
        <name>Centralpalatset, Stockholm</name>
        <cmt>Byggnader ritade av Ernst Stenhammar. Byggnader på Norrmalm.</cmt>
        <desc>Centralpalatset, Stockholm</desc>
        <link href="http://sv.wikipedia.org/wiki/Centralpalatset,_Stockholm">
            <text>Centralpalatset, Stockholm</text>
            <type>Wikipedia</type>
        </link>
    </wpt>
    <wpt lat="59.33777778" lon="18.02138889">
        <name>Stadshagsberget</name>
        <cmt>Berg i Sverige. Stadshagen. Stockholms geografi.</cmt>
        <desc>Stadshagsberget</desc>
        <link href="http://sv.wikipedia.org/wiki/Stadshagsberget">
            <text>Stadshagsberget</text>
            <type>Wikipedia</type>
        </link>
    </wpt>
    <wpt lat="59.33444444" lon="18.02194444">
        <name>Kungsholmen (stadsdel)</name>
        <cmt>Kungsholmen. Stadsdelar i Stockholm. Kungsholmens stadsdelsområde.</cmt>
        <desc>Kungsholmen (stadsdel)</desc>
        <link href="http://sv.wikipedia.org/wiki/Kungsholmen_(stadsdel)">
            <text>Kungsholmen (stadsdel)</text>
            <type>Wikipedia</type>
        </link>
    </wpt>
    <wpt lat="59.33916667" lon="18.00555556">
        <name>Hornsbergs asfaltverk</name>
        <cmt>Ej längre existerande byggnader på Kungsholmen.</cmt>
        <desc>Hornsbergs asfaltverk</desc>
        <link href="http://sv.wikipedia.org/wiki/Hornsbergs_asfaltverk">
            <text>Hornsbergs asfaltverk</text>
            <type>Wikipedia</type>
        </link>
    </wpt>
    <wpt lat="59.32444382" lon="18.07250023">
        <name>Kvarteret Cassiopea</name>
        <cmt>Kvarter i Stockholm. Stockholms historia.</cmt>
        <desc>Kvarteret Cassiopea</desc>
        <link href="http://sv.wikipedia.org/wiki/Kvarteret_Cassiopea">
            <text>Kvarteret Cassiopea</text>
            <type>Wikipedia</type>
        </link>
    </wpt>
    <wpt lat="59.32538889" lon="18.07241667">
        <name>Trädgårdsgatan</name>
        <cmt>Gator och torg i Gamla stan.</cmt>
        <desc>Trädgårdsgatan</desc>
        <link href="http://sv.wikipedia.org/wiki/Trädgårdsgatan">
            <text>Trädgårdsgatan</text>
            <type>Wikipedia</type>
        </link>
    </wpt>
    <wpt lat="59.33611111" lon="18.05583333">
        <name>Nya smedjegården</name>
        <cmt>Nedlagda fängelser i Stockholm. Ej längre existerande byggnader på Norrmalm.</cmt>
        <desc>Nya smedjegården</desc>
        <link href="http://sv.wikipedia.org/wiki/Nya_smedjegården">
            <text>Nya smedjegården</text>
            <type>Wikipedia</type>
        </link>
    </wpt>
    <wpt lat="59.33250046" lon="18.05638885">
        <name>Vasahuset, Stockholm</name>
        <cmt>Hotell i Stockholm. Byggnader på Norrmalm.</cmt>
        <desc>Vasahuset, Stockholm</desc>
        <link href="http://sv.wikipedia.org/wiki/Vasahuset,_Stockholm">
            <text>Vasahuset, Stockholm</text>
            <type>Wikipedia</type>
        </link>
    </wpt>
    <wpt lat="59.32504167" lon="18.06275833">
        <name>Wrangelska palatset</name>
        <cmt>Byggnader avbildade i Suecian. Byggnader på Riddarholmen. Byggnader ritade av Nicodemus Tessin d.ä..
            Domstolsbyggnader i Sverige. Privatpalats i Stockholm.
        </cmt>
        <desc>Wrangelska palatset</desc>
        <link href="http://sv.wikipedia.org/wiki/Wrangelska_palatset">
            <text>Wrangelska palatset</text>
            <type>Wikipedia</type>
        </link>
    </wpt>
    <wpt lat="59.32861111" lon="18.06055556">
        <name>Vem är Mr Walker?</name>
        <cmt>Norrmalm. Skulpturer i Stockholm.</cmt>
        <desc>Vem är Mr Walker?</desc>
        <link href="http://sv.wikipedia.org/wiki/Vem_är_Mr_Walker?">
            <text>Vem är Mr Walker?</text>
            <type>Wikipedia</type>
        </link>
    </wpt>
    <wpt lat="59.32466667" lon="18.06694444">
        <name>Munkbron</name>
        <cmt>Gator och torg i Gamla stan.</cmt>
        <desc>Munkbron</desc>
        <link href="http://sv.wikipedia.org/wiki/Munkbron">
            <text>Munkbron</text>
            <type>Wikipedia</type>
        </link>
    </wpt>
    <wpt lat="59.36769444" lon="17.99841667">
        <name>Vasalundshallen</name>
        <cmt>Sporthallar i Sverige. Byggnader i Solna kommun.</cmt>
        <desc>Vasalundshallen</desc>
        <link href="http://sv.wikipedia.org/wiki/Vasalundshallen">
            <text>Vasalundshallen</text>
            <type>Wikipedia</type>
        </link>
    </wpt>
    <wpt lat="59.33459167" lon="18.02386111">
        <name>Duvbo kyrka</name>
        <cmt>Religiösa byggnader invigda 1904. Kyrkobyggnader i Sundbybergs kommun. Duvbo. Kyrkobyggnader i Stockholms
            stift.
        </cmt>
        <desc>Duvbo kyrka</desc>
        <link href="http://sv.wikipedia.org/wiki/Duvbo_kyrka">
            <text>Duvbo kyrka</text>
            <type>Wikipedia</type>
        </link>
    </wpt>
    <wpt lat="59.33694444" lon="18.05047222">
        <name>Berget 10</name>
        <cmt>Funktionalistisk arkitektur. Byggnader ritade av Sven Markelius. Kvarter i Stockholm. Byggnader på
            Norrmalm.
        </cmt>
        <desc>Berget 10</desc>
        <link href="http://sv.wikipedia.org/wiki/Berget_10">
            <text>Berget 10</text>
            <type>Wikipedia</type>
        </link>
    </wpt>
    <wpt lat="59.3325" lon="18.05388889">
        <name>Klara badinrättning</name>
        <cmt>Ej längre existerande byggnader på Norrmalm. Badhus i Stockholm.</cmt>
        <desc>Klara badinrättning</desc>
        <link href="http://sv.wikipedia.org/wiki/Klara_badinrättning">
            <text>Klara badinrättning</text>
            <type>Wikipedia</type>
        </link>
    </wpt>
    <wpt lat="59.33716667" lon="18.03458333">
        <name>S:t Eriksbron</name>
        <cmt>Broar invigda 1906. Broar invigda 1937. Broar i Stockholm.</cmt>
        <desc>S:t Eriksbron</desc>
        <link href="http://sv.wikipedia.org/wiki/S:t_Eriksbron">
            <text>S:t Eriksbron</text>
            <type>Wikipedia</type>
        </link>
    </wpt>
    <wpt lat="59.32685833" lon="18.06711389">
        <name>Kanslikajen</name>
        <cmt>Gator och torg i Gamla stan.</cmt>
        <desc>Kanslikajen</desc>
        <link href="http://sv.wikipedia.org/wiki/Kanslikajen">
            <text>Kanslikajen</text>
            <type>Wikipedia</type>
        </link>
    </wpt>
    <wpt lat="59.32491667" lon="18.06930556">
        <name>Didrik Ficks gränd</name>
        <cmt>Gator och torg i Gamla stan.</cmt>
        <desc>Didrik Ficks gränd</desc>
        <link href="http://sv.wikipedia.org/wiki/Didrik_Ficks_gränd">
            <text>Didrik Ficks gränd</text>
            <type>Wikipedia</type>
        </link>
    </wpt>
    <wpt lat="59.32972222" lon="18.06305556">
        <name>Klarakvarteren</name>
        <cmt>Norrmalm. Stockholms historia.</cmt>
        <desc>Klarakvarteren</desc>
        <link href="http://sv.wikipedia.org/wiki/Klarakvarteren">
            <text>Klarakvarteren</text>
            <type>Wikipedia</type>
        </link>
    </wpt>
    <wpt lat="59.35677338" lon="17.99979973">
        <name>Hanneberg, Solna</name>
        <cmt>Solna kommun.</cmt>
        <desc>Hanneberg, Solna</desc>
        <link href="http://sv.wikipedia.org/wiki/Hanneberg,_Solna">
            <text>Hanneberg, Solna</text>
            <type>Wikipedia</type>
        </link>
    </wpt>
    <wpt lat="59.34138889" lon="18.01055556">
        <name>Karlbergsbron</name>
        <cmt>Motorvägsbroar i Sverige. Broar i Stockholm.</cmt>
        <desc>Karlbergsbron</desc>
        <link href="http://sv.wikipedia.org/wiki/Karlbergsbron">
            <text>Karlbergsbron</text>
            <type>Wikipedia</type>
        </link>
    </wpt>
    <wpt lat="59.32749939" lon="18.05138969">
        <name>Glasbruksholmen</name>
        <cmt>Konstgjorda öar. Kungsholmen. Stockholms historia. Före detta öar.</cmt>
        <desc>Glasbruksholmen</desc>
        <link href="http://sv.wikipedia.org/wiki/Glasbruksholmen">
            <text>Glasbruksholmen</text>
            <type>Wikipedia</type>
        </link>
    </wpt>
    <wpt lat="59.33388889" lon="18.05527778">
        <name>Kvarteret Klockan</name>
        <cmt>Norrmalm. Kvarter i Stockholm. Stockholms historia.</cmt>
        <desc>Kvarteret Klockan</desc>
        <link href="http://sv.wikipedia.org/wiki/Kvarteret_Klockan">
            <text>Kvarteret Klockan</text>
            <type>Wikipedia</type>
        </link>
    </wpt>
    <wpt lat="59.32805634" lon="18.04638863">
        <name>Kungsholms församlingshus</name>
        <cmt>Byggnader på Kungsholmen. Byggnader ritade av Erik Lallerstedt.</cmt>
        <desc>Kungsholms församlingshus</desc>
        <link href="http://sv.wikipedia.org/wiki/Kungsholms_församlingshus">
            <text>Kungsholms församlingshus</text>
            <type>Wikipedia</type>
        </link>
    </wpt>
    <wpt lat="59.37805557" lon="17.98861122">
        <name>Råstahem</name>
        <cmt>Solna kommun. Järva.</cmt>
        <desc>Råstahem</desc>
        <link href="http://sv.wikipedia.org/wiki/Råstahem">
            <text>Råstahem</text>
            <type>Wikipedia</type>
        </link>
    </wpt>
    <wpt lat="59.33555556" lon="18.02416667">
        <name>Kvinnohuset (byggnad)</name>
        <cmt>Byggnader på Kungsholmen. Svensk kvinnohistoria.</cmt>
        <desc>Kvinnohuset (byggnad)</desc>
        <link href="http://sv.wikipedia.org/wiki/Kvinnohuset_(byggnad)">
            <text>Kvinnohuset (byggnad)</text>
            <type>Wikipedia</type>
        </link>
    </wpt>
    <wpt lat="59.32501944" lon="18.0694">
        <name>Västerlånggatan 31</name>
        <cmt>Byggnader i Gamla stan.</cmt>
        <desc>Västerlånggatan 31</desc>
        <link href="http://sv.wikipedia.org/wiki/Västerlånggatan_31">
            <text>Västerlånggatan 31</text>
            <type>Wikipedia</type>
        </link>
    </wpt>
    <wpt lat="59.40285556" lon="17.94456944">
        <name>Filmstaden Kista</name>
        <cmt>Kista. Biografer i Stockholm.</cmt>
        <desc>Filmstaden Kista</desc>
        <link href="http://sv.wikipedia.org/wiki/Filmstaden_Kista">
            <text>Filmstaden Kista</text>
            <type>Wikipedia</type>
        </link>
    </wpt>
    <wpt lat="59.32583333" lon="18.06138889">
        <name>Norra Riddarholmshamnen</name>
        <cmt>Gator och torg på Riddarholmen.</cmt>
        <desc>Norra Riddarholmshamnen</desc>
        <link href="http://sv.wikipedia.org/wiki/Norra_Riddarholmshamnen">
            <text>Norra Riddarholmshamnen</text>
            <type>Wikipedia</type>
        </link>
    </wpt>
    <wpt lat="59.36855316" lon="17.98775291">
        <name>Råsunda distrikt</name>
        <cmt>Indelningar i Solna kommun. Distrikt i Stockholms län.</cmt>
        <desc>Råsunda distrikt</desc>
        <link href="http://sv.wikipedia.org/wiki/Råsunda_distrikt">
            <text>Råsunda distrikt</text>
            <type>Wikipedia</type>
        </link>
    </wpt>
    <wpt lat="59.32770556" lon="18.05049722">
        <name>Kungliga Myntet</name>
        <cmt>Byggnader på Kungsholmen. Byggnadsminnen i Stockholms kommun. Mynt. Byggnader ritade av Johan Fredrik
            Åbom.
        </cmt>
        <desc>Kungliga Myntet</desc>
        <link href="http://sv.wikipedia.org/wiki/Kungliga_Myntet">
            <text>Kungliga Myntet</text>
            <type>Wikipedia</type>
        </link>
    </wpt>
    <wpt lat="59.40138889" lon="17.9425">
        <name>Kista distrikt</name>
        <cmt>Indelningar i Stockholms kommun. Västerort. Distrikt i Stockholms län.</cmt>
        <desc>Kista distrikt</desc>
        <link href="http://sv.wikipedia.org/wiki/Kista_distrikt">
            <text>Kista distrikt</text>
            <type>Wikipedia</type>
        </link>
    </wpt>
    <wpt lat="59.32416667" lon="18.06444444">
        <name>Gymnasiegränd</name>
        <cmt>Gator och torg på Riddarholmen.</cmt>
        <desc>Gymnasiegränd</desc>
        <link href="http://sv.wikipedia.org/wiki/Gymnasiegränd">
            <text>Gymnasiegränd</text>
            <type>Wikipedia</type>
        </link>
    </wpt>
    <wpt lat="59.33539722" lon="18.04684167">
        <name>Barnhusbron</name>
        <cmt>Broar invigda 1969. Broar i Stockholm.</cmt>
        <desc>Barnhusbron</desc>
        <link href="http://sv.wikipedia.org/wiki/Barnhusbron">
            <text>Barnhusbron</text>
            <type>Wikipedia</type>
        </link>
    </wpt>
    <wpt lat="59.37194444" lon="18.00277778">
        <name>Quality Hotel Friends</name>
        <cmt>Bildanden 2013. Hotell i Stockholms län. Byggnader i Solna kommun.</cmt>
        <desc>Quality Hotel Friends</desc>
        <link href="http://sv.wikipedia.org/wiki/Quality_Hotel_Friends">
            <text>Quality Hotel Friends</text>
            <type>Wikipedia</type>
        </link>
    </wpt>
    <wpt lat="59.34146118" lon="18.04397202">
        <name>Vasa högre flickskola</name>
        <cmt>Ej längre existerande skolor i Stockholm. Byggnader ritade av Ragnar Östberg. Utbildningsinstitutioner
            upplösta 1939. Flickskolor i Sverige. Byggnader i Vasastan. Utbildningsinstitutioner bildade 1878.
        </cmt>
        <desc>Vasa högre flickskola</desc>
        <link href="http://sv.wikipedia.org/wiki/Vasa_högre_flickskola">
            <text>Vasa högre flickskola</text>
            <type>Wikipedia</type>
        </link>
    </wpt>
    <wpt lat="59.33100833" lon="18.03280556">
        <name>Kungsholmens brandstation</name>
        <cmt>Byggnader på Kungsholmen. Brandstationer i Stockholm.</cmt>
        <desc>Kungsholmens brandstation</desc>
        <link href="http://sv.wikipedia.org/wiki/Kungsholmens_brandstation">
            <text>Kungsholmens brandstation</text>
            <type>Wikipedia</type>
        </link>
    </wpt>
    <wpt lat="59.33611298" lon="18.0288887">
        <name>AB Gerh. Arehns Mekaniska Verkstad</name>
        <cmt>Industriföretag i Stockholm. Svenska verkstadsindustriföretag. Kungsholmen. Företag bildade 1895.</cmt>
        <desc>AB Gerh. Arehns Mekaniska Verkstad</desc>
        <link href="http://sv.wikipedia.org/wiki/AB_Gerh._Arehns_Mekaniska_Verkstad">
            <text>AB Gerh. Arehns Mekaniska Verkstad</text>
            <type>Wikipedia</type>
        </link>
    </wpt>
    <wpt lat="59.33222198" lon="18.05638885">
        <name>Vasaplan, Stockholm</name>
        <cmt>Gator och torg på Norrmalm.</cmt>
        <desc>Vasaplan, Stockholm</desc>
        <link href="http://sv.wikipedia.org/wiki/Vasaplan,_Stockholm">
            <text>Vasaplan, Stockholm</text>
            <type>Wikipedia</type>
        </link>
    </wpt>
    <wpt lat="59.33388901" lon="18.04138947">
        <name>S:t Eriksområdet</name>
        <cmt>Byggnader på Kungsholmen. Kungsholmen.</cmt>
        <desc>S:t Eriksområdet</desc>
        <link href="http://sv.wikipedia.org/wiki/S:t_Eriksområdet">
            <text>S:t Eriksområdet</text>
            <type>Wikipedia</type>
        </link>
    </wpt>
    <wpt lat="59.3295" lon="18.05161111">
        <name>Bolinders plan</name>
        <cmt>Gator och torg på Kungsholmen.</cmt>
        <desc>Bolinders plan</desc>
        <link href="http://sv.wikipedia.org/wiki/Bolinders_plan">
            <text>Bolinders plan</text>
            <type>Wikipedia</type>
        </link>
    </wpt>
    <wpt lat="59.39666748" lon="17.94083405">
        <name>Kvarteret Randers</name>
        <cmt>Kista.</cmt>
        <desc>Kvarteret Randers</desc>
        <link href="http://sv.wikipedia.org/wiki/Kvarteret_Randers">
            <text>Kvarteret Randers</text>
            <type>Wikipedia</type>
        </link>
    </wpt>
    <wpt lat="59.33152778" lon="18.05075">
        <name>Blekholmsbron</name>
        <cmt>Norrmalm. Kungsholmen. Broar i Stockholm.</cmt>
        <desc>Blekholmsbron</desc>
        <link href="http://sv.wikipedia.org/wiki/Blekholmsbron">
            <text>Blekholmsbron</text>
            <type>Wikipedia</type>
        </link>
    </wpt>
    <wpt lat="59.34372222" lon="18.02652778">
        <name>Tomtebodabron</name>
        <cmt>Ej längre existerande broar. Broar i Stockholm.</cmt>
        <desc>Tomtebodabron</desc>
        <link href="http://sv.wikipedia.org/wiki/Tomtebodabron">
            <text>Tomtebodabron</text>
            <type>Wikipedia</type>
        </link>
    </wpt>
    <wpt lat="59.3325" lon="18.04833333">
        <name>Tekniska nämndhuset, Stockholm</name>
        <cmt>Byggnader på Kungsholmen. Stockholms kommun. Stadsplanering i Stockholm.</cmt>
        <desc>Tekniska nämndhuset, Stockholm</desc>
        <link href="http://sv.wikipedia.org/wiki/Tekniska_nämndhuset,_Stockholm">
            <text>Tekniska nämndhuset, Stockholm</text>
            <type>Wikipedia</type>
        </link>
    </wpt>
    <wpt lat="59.32644167" lon="18.05637778">
        <name>Your Star</name>
        <cmt>Installation (konst). Stockholm. Nobelpriset. Konstverk i Sverige.</cmt>
        <desc>Your Star</desc>
        <link href="http://sv.wikipedia.org/wiki/Your_Star">
            <text>Your Star</text>
            <type>Wikipedia</type>
        </link>
    </wpt>
    <wpt lat="59.32566833" lon="18.06794357">
        <name>Cattelin</name>
        <cmt>Harry Friberg. Restauranger i Stockholm.</cmt>
        <desc>Cattelin</desc>
        <link href="http://sv.wikipedia.org/wiki/Cattelin">
            <text>Cattelin</text>
            <type>Wikipedia</type>
        </link>
    </wpt>
    <wpt lat="59.32548333" lon="18.06704722">
        <name>Ryningska palatset</name>
        <cmt>Privatpalats i Stockholm. Byggnadsminnen i Stockholms kommun. Byggnader i Gamla stan.</cmt>
        <desc>Ryningska palatset</desc>
        <link href="http://sv.wikipedia.org/wiki/Ryningska_palatset">
            <text>Ryningska palatset</text>
            <type>Wikipedia</type>
        </link>
    </wpt>
    <wpt lat="59.32572174" lon="18.07263947">
        <name>Finska kyrkogränd</name>
        <cmt>Gator och torg i Gamla stan.</cmt>
        <desc>Finska kyrkogränd</desc>
        <link href="http://sv.wikipedia.org/wiki/Finska_kyrkogränd">
            <text>Finska kyrkogränd</text>
            <type>Wikipedia</type>
        </link>
    </wpt>
    <wpt lat="59.32502778" lon="18.07305556">
        <name>Själagårdsgatan</name>
        <cmt>Gator och torg i Gamla stan.</cmt>
        <desc>Själagårdsgatan</desc>
        <link href="http://sv.wikipedia.org/wiki/Själagårdsgatan">
            <text>Själagårdsgatan</text>
            <type>Wikipedia</type>
        </link>
    </wpt>
    <wpt lat="59.32625" lon="18.06863889">
        <name>Hotell Östergötland</name>
        <cmt>Historiska verksamheter i Gamla stan. Historiska hotell i Stockholm. Företag bildade 1852. Restauranger i
            Stockholm.
        </cmt>
        <desc>Hotell Östergötland</desc>
        <link href="http://sv.wikipedia.org/wiki/Hotell_Östergötland">
            <text>Hotell Östergötland</text>
            <type>Wikipedia</type>
        </link>
    </wpt>
    <wpt lat="59.32583333" lon="18.06944444">
        <name>Beijerska huset</name>
        <cmt>Privatpalats i Stockholm. Byggnadsminnen i Stockholms kommun. Byggnader i Gamla stan.</cmt>
        <desc>Beijerska huset</desc>
        <link href="http://sv.wikipedia.org/wiki/Beijerska_huset">
            <text>Beijerska huset</text>
            <type>Wikipedia</type>
        </link>
    </wpt>
    <wpt lat="59.37098056" lon="17.97745">
        <name>Golfängarna</name>
        <cmt>Parker i Sundbybergs kommun. Ör.</cmt>
        <desc>Golfängarna</desc>
        <link href="http://sv.wikipedia.org/wiki/Golfängarna">
            <text>Golfängarna</text>
            <type>Wikipedia</type>
        </link>
    </wpt>
    <wpt lat="59.32877778" lon="18.06163889">
        <name>Kronprinsens stall</name>
        <cmt>Ej längre existerande byggnader på Norrmalm.</cmt>
        <desc>Kronprinsens stall</desc>
        <link href="http://sv.wikipedia.org/wiki/Kronprinsens_stall">
            <text>Kronprinsens stall</text>
            <type>Wikipedia</type>
        </link>
    </wpt>
    <wpt lat="59.33327778" lon="18.055225">
        <name>Casino Cosmopol, Stockholm</name>
        <cmt>Norrmalm. Byggnader ritade av Hagström och Ekman. Kasinon. Svenska företag med statligt ägande. Nöjen i
            Stockholm. Företag bildade 2003.
        </cmt>
        <desc>Casino Cosmopol, Stockholm</desc>
        <link href="http://sv.wikipedia.org/wiki/Casino_Cosmopol,_Stockholm">
            <text>Casino Cosmopol, Stockholm</text>
            <type>Wikipedia</type>
        </link>
    </wpt>
    <wpt lat="59.32625" lon="18.06902778">
        <name>Prästgatan</name>
        <cmt>Gator och torg i Gamla stan.</cmt>
        <desc>Prästgatan</desc>
        <link href="http://sv.wikipedia.org/wiki/Prästgatan">
            <text>Prästgatan</text>
            <type>Wikipedia</type>
        </link>
    </wpt>
    <wpt lat="59.32513889" lon="18.07261111">
        <name>Skeppar Olofs gränd</name>
        <cmt>Gator och torg i Gamla stan.</cmt>
        <desc>Skeppar Olofs gränd</desc>
        <link href="http://sv.wikipedia.org/wiki/Skeppar_Olofs_gränd">
            <text>Skeppar Olofs gränd</text>
            <type>Wikipedia</type>
        </link>
    </wpt>
    <wpt lat="59.33916667" lon="18.00555556">
        <name>Kvarteret Lusten</name>
        <cmt>Byggnader på Kungsholmen. Kvarter i Stockholm. Skyskrapor i Stockholm.</cmt>
        <desc>Kvarteret Lusten</desc>
        <link href="http://sv.wikipedia.org/wiki/Kvarteret_Lusten">
            <text>Kvarteret Lusten</text>
            <type>Wikipedia</type>
        </link>
    </wpt>
    <wpt lat="59.32541656" lon="18.06999969">
        <name>Ankargränd</name>
        <cmt>Gator och torg i Gamla stan.</cmt>
        <desc>Ankargränd</desc>
        <link href="http://sv.wikipedia.org/wiki/Ankargränd">
            <text>Ankargränd</text>
            <type>Wikipedia</type>
        </link>
    </wpt>
    <wpt lat="59.32561111" lon="18.06697222">
        <name>Stora Nygatan</name>
        <cmt>Gator och torg i Gamla stan.</cmt>
        <desc>Stora Nygatan</desc>
        <link href="http://sv.wikipedia.org/wiki/Stora_Nygatan">
            <text>Stora Nygatan</text>
            <type>Wikipedia</type>
        </link>
    </wpt>
    <wpt lat="59.32455556" lon="18.06744444">
        <name>Lilla Nygatan</name>
        <cmt>Gator och torg i Gamla stan.</cmt>
        <desc>Lilla Nygatan</desc>
        <link href="http://sv.wikipedia.org/wiki/Lilla_Nygatan">
            <text>Lilla Nygatan</text>
            <type>Wikipedia</type>
        </link>
    </wpt>
    <wpt lat="59.32531944" lon="18.07134167">
        <name>Stockholms domkyrkoförsamling</name>
        <cmt>Norrmalm. Församlingar i Stockholms kommun. Verksamheter i Gamla stan.</cmt>
        <desc>Stockholms domkyrkoförsamling</desc>
        <link href="http://sv.wikipedia.org/wiki/Stockholms_domkyrkoförsamling">
            <text>Stockholms domkyrkoförsamling</text>
            <type>Wikipedia</type>
        </link>
    </wpt>
    <wpt lat="59.3415" lon="18.04477778">
        <name>Plaza (biograf, Stockholm)</name>
        <cmt>Teatrar i Stockholm. Nedlagda biografer i Stockholm.</cmt>
        <desc>Plaza (biograf, Stockholm)</desc>
        <link href="http://sv.wikipedia.org/wiki/Plaza_(biograf,_Stockholm)">
            <text>Plaza (biograf, Stockholm)</text>
            <type>Wikipedia</type>
        </link>
    </wpt>
    <wpt lat="59.33236111" lon="18.05183333">
        <name>Centralsaluhallen</name>
        <cmt>Ej längre existerande byggnader på Norrmalm. Ej längre existerande saluhallar i Sverige.</cmt>
        <desc>Centralsaluhallen</desc>
        <link href="http://sv.wikipedia.org/wiki/Centralsaluhallen">
            <text>Centralsaluhallen</text>
            <type>Wikipedia</type>
        </link>
    </wpt>
    <wpt lat="59.32583056" lon="18.06234444">
        <name>Schering Rosenhanes palats</name>
        <cmt>Byggnader avbildade i Suecian. Byggnader på Riddarholmen. Privatpalats i Stockholm.</cmt>
        <desc>Schering Rosenhanes palats</desc>
        <link href="http://sv.wikipedia.org/wiki/Schering_Rosenhanes_palats">
            <text>Schering Rosenhanes palats</text>
            <type>Wikipedia</type>
        </link>
    </wpt>
    <wpt lat="59.33111111" lon="18.05666667">
        <name>World Trade Center, Stockholm</name>
        <cmt>Byggnader på Norrmalm. Ralph Erskine.</cmt>
        <desc>World Trade Center, Stockholm</desc>
        <link href="http://sv.wikipedia.org/wiki/World_Trade_Center,_Stockholm">
            <text>World Trade Center, Stockholm</text>
            <type>Wikipedia</type>
        </link>
    </wpt>
    <wpt lat="59.325" lon="18.06388889">
        <name>Riddarholmen</name>
        <cmt>Riddarholmen. Stadsdelar i Stockholm. Öar i Mälaren. Riksintressen för kulturmiljövården i Stockholms
            län.
        </cmt>
        <desc>Riddarholmen</desc>
        <link href="http://sv.wikipedia.org/wiki/Riddarholmen">
            <text>Riddarholmen</text>
            <type>Wikipedia</type>
        </link>
    </wpt>
    <wpt lat="59.32510556" lon="18.06385278">
        <name>Birger Jarls torg</name>
        <cmt>Birger jarl. Gator och torg på Riddarholmen.</cmt>
        <desc>Birger Jarls torg</desc>
        <link href="http://sv.wikipedia.org/wiki/Birger_Jarls_torg">
            <text>Birger Jarls torg</text>
            <type>Wikipedia</type>
        </link>
    </wpt>
    <wpt lat="59.33305556" lon="18.03111111">
        <name>Gnistan (biograf, Stockholm)</name>
        <cmt>Kungsholmen. Nedlagda biografer i Stockholm.</cmt>
        <desc>Gnistan (biograf, Stockholm)</desc>
        <link href="http://sv.wikipedia.org/wiki/Gnistan_(biograf,_Stockholm)">
            <text>Gnistan (biograf, Stockholm)</text>
            <type>Wikipedia</type>
        </link>
    </wpt>
    <wpt lat="59.32391667" lon="18.06947222">
        <name>Schönfeldts gränd</name>
        <cmt>Gator och torg i Gamla stan.</cmt>
        <desc>Schönfeldts gränd</desc>
        <link href="http://sv.wikipedia.org/wiki/Schönfeldts_gränd">
            <text>Schönfeldts gränd</text>
            <type>Wikipedia</type>
        </link>
    </wpt>
    <wpt lat="59.34027778" lon="18.01444444">
        <name>Karlbergskanalen</name>
        <cmt>Kungsholmen. Stockholms geografi. Kanaler i Sverige. Stadshagen. Sjöfart i Stockholm. Mälaren. Solna
            kommun.
        </cmt>
        <desc>Karlbergskanalen</desc>
        <link href="http://sv.wikipedia.org/wiki/Karlbergskanalen">
            <text>Karlbergskanalen</text>
            <type>Wikipedia</type>
        </link>
    </wpt>
    <wpt lat="59.32572222" lon="18.06291667">
        <name>Schering Rosenhanes gränd</name>
        <cmt>Gator och torg på Riddarholmen.</cmt>
        <desc>Schering Rosenhanes gränd</desc>
        <link href="http://sv.wikipedia.org/wiki/Schering_Rosenhanes_gränd">
            <text>Schering Rosenhanes gränd</text>
            <type>Wikipedia</type>
        </link>
    </wpt>
    <wpt lat="59.32569167" lon="18.06361389">
        <name>Tryckerigatan</name>
        <cmt>Gator och torg på Riddarholmen.</cmt>
        <desc>Tryckerigatan</desc>
        <link href="http://sv.wikipedia.org/wiki/Tryckerigatan">
            <text>Tryckerigatan</text>
            <type>Wikipedia</type>
        </link>
    </wpt>
    <wpt lat="59.33583333" lon="18.05388889">
        <name>Västmannagatan</name>
        <cmt>Gator och torg på Norrmalm. Gator och torg i Vasastan.</cmt>
        <desc>Västmannagatan</desc>
        <link href="http://sv.wikipedia.org/wiki/Västmannagatan">
            <text>Västmannagatan</text>
            <type>Wikipedia</type>
        </link>
    </wpt>
    <wpt lat="59.33958056" lon="18.047275">
        <name>Kvarteret Loka Brunn</name>
        <cmt>Byggnader i Vasastan. Kvarter i Stockholm.</cmt>
        <desc>Kvarteret Loka Brunn</desc>
        <link href="http://sv.wikipedia.org/wiki/Kvarteret_Loka_Brunn">
            <text>Kvarteret Loka Brunn</text>
            <type>Wikipedia</type>
        </link>
    </wpt>
    <wpt lat="59.33606667" lon="18.02853333">
        <name>Tullmuseum</name>
        <cmt>Museer i Stockholm.</cmt>
        <desc>Tullmuseum</desc>
        <link href="http://sv.wikipedia.org/wiki/Tullmuseum">
            <text>Tullmuseum</text>
            <type>Wikipedia</type>
        </link>
    </wpt>
    <wpt lat="59.32611111" lon="18.06333333">
        <name>Arkivgatan</name>
        <cmt>Gator och torg på Riddarholmen.</cmt>
        <desc>Arkivgatan</desc>
        <link href="http://sv.wikipedia.org/wiki/Arkivgatan">
            <text>Arkivgatan</text>
            <type>Wikipedia</type>
        </link>
    </wpt>
    <wpt lat="59.36855316" lon="17.98775291">
        <name>Råsunda kyrka</name>
        <cmt>Kyrkobyggnader i Solna kommun. Kyrkobyggnader i Stockholms stift. Religiösa byggnader invigda 1968.</cmt>
        <desc>Råsunda kyrka</desc>
        <link href="http://sv.wikipedia.org/wiki/Råsunda_kyrka">
            <text>Råsunda kyrka</text>
            <type>Wikipedia</type>
        </link>
    </wpt>
    <wpt lat="59.32648611" lon="18.06484444">
        <name>Riddarhuskajen</name>
        <cmt>Gator och torg i Gamla stan.</cmt>
        <desc>Riddarhuskajen</desc>
        <link href="http://sv.wikipedia.org/wiki/Riddarhuskajen">
            <text>Riddarhuskajen</text>
            <type>Wikipedia</type>
        </link>
    </wpt>
    <wpt lat="59.33944444" lon="18.03861111">
        <name>Sankt Eriksplan</name>
        <cmt>Gator och torg i Vasastan.</cmt>
        <desc>Sankt Eriksplan</desc>
        <link href="http://sv.wikipedia.org/wiki/Sankt_Eriksplan">
            <text>Sankt Eriksplan</text>
            <type>Wikipedia</type>
        </link>
    </wpt>
    <wpt lat="59.40277863" lon="17.94722176">
        <name>Jan Stenbecks torg</name>
        <cmt>Kista. Gator och torg i Västerort.</cmt>
        <desc>Jan Stenbecks torg</desc>
        <link href="http://sv.wikipedia.org/wiki/Jan_Stenbecks_torg">
            <text>Jan Stenbecks torg</text>
            <type>Wikipedia</type>
        </link>
    </wpt>
    <wpt lat="59.32636111" lon="18.06572222">
        <name>Riddarhusgränd</name>
        <cmt>Gator och torg i Gamla stan.</cmt>
        <desc>Riddarhusgränd</desc>
        <link href="http://sv.wikipedia.org/wiki/Riddarhusgränd">
            <text>Riddarhusgränd</text>
            <type>Wikipedia</type>
        </link>
    </wpt>
    <wpt lat="59.32502778" lon="18.06497222">
        <name>Wrangelska backen</name>
        <cmt>Gator och torg på Riddarholmen.</cmt>
        <desc>Wrangelska backen</desc>
        <link href="http://sv.wikipedia.org/wiki/Wrangelska_backen">
            <text>Wrangelska backen</text>
            <type>Wikipedia</type>
        </link>
    </wpt>
    <wpt lat="59.32486111" lon="18.07027778">
        <name>Schantzska huset</name>
        <cmt>Byggnader i Gamla stan.</cmt>
        <desc>Schantzska huset</desc>
        <link href="http://sv.wikipedia.org/wiki/Schantzska_huset">
            <text>Schantzska huset</text>
            <type>Wikipedia</type>
        </link>
    </wpt>
    <wpt lat="59.34611111" lon="17.98944444">
        <name>Huvudsta gamla slott</name>
        <cmt>Arkitekturåret 1750. 1750 i Sverige. Byggnader i Solna kommun. Slott i Uppland. Huvudsta.</cmt>
        <desc>Huvudsta gamla slott</desc>
        <link href="http://sv.wikipedia.org/wiki/Huvudsta_gamla_slott">
            <text>Huvudsta gamla slott</text>
            <type>Wikipedia</type>
        </link>
    </wpt>
    <wpt lat="59.32791667" lon="18.04636111">
        <name>Garvargatan, Stockholm</name>
        <cmt>Gator och torg på Kungsholmen.</cmt>
        <desc>Garvargatan, Stockholm</desc>
        <link href="http://sv.wikipedia.org/wiki/Garvargatan,_Stockholm">
            <text>Garvargatan, Stockholm</text>
            <type>Wikipedia</type>
        </link>
    </wpt>
    <wpt lat="59.32561111" lon="18.07116699">
        <name>Källargränd</name>
        <cmt>Gator och torg i Gamla stan.</cmt>
        <desc>Källargränd</desc>
        <link href="http://sv.wikipedia.org/wiki/Källargränd">
            <text>Källargränd</text>
            <type>Wikipedia</type>
        </link>
    </wpt>
    <wpt lat="59.33134079" lon="18.04515076">
        <name>Amaranten (hotell)</name>
        <cmt>Byggnader på Kungsholmen. Hotell i Stockholm. Företag bildade 1969.</cmt>
        <desc>Amaranten (hotell)</desc>
        <link href="http://sv.wikipedia.org/wiki/Amaranten_(hotell)">
            <text>Amaranten (hotell)</text>
            <type>Wikipedia</type>
        </link>
    </wpt>
    <wpt lat="59.33846389" lon="18.04921667">
        <name>Åhlinska skolan</name>
        <cmt>Ej längre existerande skolor i Stockholm. Utbildningsinstitutioner upplösta 1939. Flickskolor i Sverige.
            Byggnader i Vasastan. Utbildningsinstitutioner bildade 1847. Byggnader ritade av Hagström och Ekman.
        </cmt>
        <desc>Åhlinska skolan</desc>
        <link href="http://sv.wikipedia.org/wiki/Åhlinska_skolan">
            <text>Åhlinska skolan</text>
            <type>Wikipedia</type>
        </link>
    </wpt>
    <wpt lat="59.33416748" lon="18.03527832">
        <name>Ringdahls Optik-skylten</name>
        <cmt>Ljusskyltar i Stockholm. Kungsholmen. Företag bildade 1946.</cmt>
        <desc>Ringdahls Optik-skylten</desc>
        <link href="http://sv.wikipedia.org/wiki/Ringdahls_Optik-skylten">
            <text>Ringdahls Optik-skylten</text>
            <type>Wikipedia</type>
        </link>
    </wpt>
    <wpt lat="59.32611111" lon="18.06916667">
        <name>Kvarteret Neptunus större</name>
        <cmt>Kvarter i Gamla stan. Byggnadsminnen i Stockholms kommun. Kvarter i Stockholm.</cmt>
        <desc>Kvarteret Neptunus större</desc>
        <link href="http://sv.wikipedia.org/wiki/Kvarteret_Neptunus_större">
            <text>Kvarteret Neptunus större</text>
            <type>Wikipedia</type>
        </link>
    </wpt>
    <wpt lat="59.38194444" lon="17.99083333">
        <name>Järva, Solna kommun</name>
        <cmt>Stadsdelar i Solna kommun.</cmt>
        <desc>Järva, Solna kommun</desc>
        <link href="http://sv.wikipedia.org/wiki/Järva,_Solna_kommun">
            <text>Järva, Solna kommun</text>
            <type>Wikipedia</type>
        </link>
    </wpt>
    <wpt lat="59.334625" lon="18.03225556">
        <name>Västermalmsgallerian</name>
        <cmt>Köpcentrum i Stockholms län. Kungsholmen.</cmt>
        <desc>Västermalmsgallerian</desc>
        <link href="http://sv.wikipedia.org/wiki/Västermalmsgallerian">
            <text>Västermalmsgallerian</text>
            <type>Wikipedia</type>
        </link>
    </wpt>
    <wpt lat="59.39500046" lon="17.96500015">
        <name>Kymlinge (tunnelbanestation)</name>
        <cmt>Kymlinge. Nedlagda byggprojekt i Stockholm. Stockholms tunnelbanestationer. Övergivna
            tunnelbanestationer.
        </cmt>
        <desc>Kymlinge (tunnelbanestation)</desc>
        <link href="http://sv.wikipedia.org/wiki/Kymlinge_(tunnelbanestation)">
            <text>Kymlinge (tunnelbanestation)</text>
            <type>Wikipedia</type>
        </link>
    </wpt>
    <wpt lat="59.33277778" lon="18.05194444">
        <name>Pakettullhuset, Stockholm</name>
        <cmt>Ferdinand Boberg. Tullväsen. Ej längre existerande byggnader på Norrmalm.</cmt>
        <desc>Pakettullhuset, Stockholm</desc>
        <link href="http://sv.wikipedia.org/wiki/Pakettullhuset,_Stockholm">
            <text>Pakettullhuset, Stockholm</text>
            <type>Wikipedia</type>
        </link>
    </wpt>
    <wpt lat="59.336" lon="18.03394444">
        <name>Roxy (biograf, Stockholm)</name>
        <cmt>Nedlagda biografer i Stockholm.</cmt>
        <desc>Roxy (biograf, Stockholm)</desc>
        <link href="http://sv.wikipedia.org/wiki/Roxy_(biograf,_Stockholm)">
            <text>Roxy (biograf, Stockholm)</text>
            <type>Wikipedia</type>
        </link>
    </wpt>
    <wpt lat="59.325" lon="18.0675">
        <name>Kvarteret Milon</name>
        <cmt>Kvarter i Gamla stan.</cmt>
        <desc>Kvarteret Milon</desc>
        <link href="http://sv.wikipedia.org/wiki/Kvarteret_Milon">
            <text>Kvarteret Milon</text>
            <type>Wikipedia</type>
        </link>
    </wpt>
    <wpt lat="59.33250046" lon="18.03055573">
        <name>Fridhemsplan (tunnelbanestation)</name>
        <cmt>Stockholms tunnelbanestationer. Järnvägsstationer invigda 1952. Kungsholmen.</cmt>
        <desc>Fridhemsplan (tunnelbanestation)</desc>
        <link href="http://sv.wikipedia.org/wiki/Fridhemsplan_(tunnelbanestation)">
            <text>Fridhemsplan (tunnelbanestation)</text>
            <type>Wikipedia</type>
        </link>
    </wpt>
    <wpt lat="59.32525" lon="18.07211111">
        <name>Trädgårdstvärgränd</name>
        <cmt>Gator och torg i Gamla stan.</cmt>
        <desc>Trädgårdstvärgränd</desc>
        <link href="http://sv.wikipedia.org/wiki/Trädgårdstvärgränd">
            <text>Trädgårdstvärgränd</text>
            <type>Wikipedia</type>
        </link>
    </wpt>
    <wpt lat="59.33472222" lon="18.03222222">
        <name>Metropol (biograf)</name>
        <cmt>Kungsholmen. Nedlagda biografer i Stockholm.</cmt>
        <desc>Metropol (biograf)</desc>
        <link href="http://sv.wikipedia.org/wiki/Metropol_(biograf)">
            <text>Metropol (biograf)</text>
            <type>Wikipedia</type>
        </link>
    </wpt>
    <wpt lat="59.32510556" lon="18.06385278">
        <name>Birger jarl (staty)</name>
        <cmt>Skulpturer av Bengt Erland Fogelberg. Skulpturer på Riddarholmen. Konståret 1854. Birger jarl. 1854 i
            Sverige. Regentskulpturer i Sverige. Skulpturer i Stockholm.
        </cmt>
        <desc>Birger jarl (staty)</desc>
        <link href="http://sv.wikipedia.org/wiki/Birger_jarl_(staty)">
            <text>Birger jarl (staty)</text>
            <type>Wikipedia</type>
        </link>
    </wpt>
    <wpt lat="59.32472229" lon="18.06744385">
        <name>Munkbron 9</name>
        <cmt>Byggnader uppförda av Skanska. Byggnader i Gamla stan. Historiska bankbyggnader i Sverige. Byggnader ritade
            av Erik Josephson.
        </cmt>
        <desc>Munkbron 9</desc>
        <link href="http://sv.wikipedia.org/wiki/Munkbron_9">
            <text>Munkbron 9</text>
            <type>Wikipedia</type>
        </link>
    </wpt>
    <wpt lat="59.33670807" lon="18.05530357">
        <name>Apotekarsocieteten</name>
        <cmt>Intresseorganisationer i Sverige. Byggnader på Norrmalm. Farmaci.</cmt>
        <desc>Apotekarsocieteten</desc>
        <link href="http://sv.wikipedia.org/wiki/Apotekarsocieteten">
            <text>Apotekarsocieteten</text>
            <type>Wikipedia</type>
        </link>
    </wpt>
    <wpt lat="59.3346405" lon="18.03208351">
        <name>Flemingtorget</name>
        <cmt>Gator och torg på Kungsholmen.</cmt>
        <desc>Flemingtorget</desc>
        <link href="http://sv.wikipedia.org/wiki/Flemingtorget">
            <text>Flemingtorget</text>
            <type>Wikipedia</type>
        </link>
    </wpt>
    <wpt lat="59.33972222" lon="18.03694444">
        <name>S:t Eriksplan (tunnelbanestation)</name>
        <cmt>Vasastan. Stockholms tunnelbanestationer. Järnvägsstationer invigda 1952.</cmt>
        <desc>S:t Eriksplan (tunnelbanestation)</desc>
        <link href="http://sv.wikipedia.org/wiki/S:t_Eriksplan_(tunnelbanestation)">
            <text>S:t Eriksplan (tunnelbanestation)</text>
            <type>Wikipedia</type>
        </link>
    </wpt>
    <wpt lat="59.34146118" lon="18.04397202">
        <name>Judiska Museet</name>
        <cmt>Vasastan. Museer i Stockholm. Judendom i Stockholm.</cmt>
        <desc>Judiska Museet</desc>
        <link href="http://sv.wikipedia.org/wiki/Judiska_Museet">
            <text>Judiska Museet</text>
            <type>Wikipedia</type>
        </link>
    </wpt>
    <wpt lat="59.33805556" lon="18.04666667">
        <name>Sabbatsberg</name>
        <cmt>Informella områden. Vasastan.</cmt>
        <desc>Sabbatsberg</desc>
        <link href="http://sv.wikipedia.org/wiki/Sabbatsberg">
            <text>Sabbatsberg</text>
            <type>Wikipedia</type>
        </link>
    </wpt>
    <wpt lat="59.32483333" lon="18.07297222">
        <name>Brända tomten</name>
        <cmt>Bränder 1728. Gator och torg i Gamla stan.</cmt>
        <desc>Brända tomten</desc>
        <link href="http://sv.wikipedia.org/wiki/Brända_tomten">
            <text>Brända tomten</text>
            <type>Wikipedia</type>
        </link>
    </wpt>
    <wpt lat="59.32583333" lon="18.07138889">
        <name>Tre Kronor (byggnad)</name>
        <cmt>Ej längre existerande torn i Sverige. Förstörda byggnadsverk. Gamla stans historia. Ej längre existerande
            borgar och slott i Sverige. Ej längre existerande byggnader i Gamla stan. Byggnader avbildade i Suecian.
            Stockholms historia.
        </cmt>
        <desc>Tre Kronor (byggnad)</desc>
        <link href="http://sv.wikipedia.org/wiki/Tre_Kronor_(byggnad)">
            <text>Tre Kronor (byggnad)</text>
            <type>Wikipedia</type>
        </link>
    </wpt>
    <wpt lat="59.33416748" lon="18.04138947">
        <name>Sankt Eriks kapell, Kungsholmen</name>
        <cmt>Byggnadsminnen i Stockholms kommun. Kyrkobyggnader i Stockholms innerstad. Religiösa byggnader invigda
            1913. Kyrkobyggnader i Stockholms stift.
        </cmt>
        <desc>Sankt Eriks kapell, Kungsholmen</desc>
        <link href="http://sv.wikipedia.org/wiki/Sankt_Eriks_kapell,_Kungsholmen">
            <text>Sankt Eriks kapell, Kungsholmen</text>
            <type>Wikipedia</type>
        </link>
    </wpt>
    <wpt lat="59.325" lon="18.07055556">
        <name>Stortorget, Stockholm</name>
        <cmt>Gator och torg i Gamla stan.</cmt>
        <desc>Stortorget, Stockholm</desc>
        <link href="http://sv.wikipedia.org/wiki/Stortorget,_Stockholm">
            <text>Stortorget, Stockholm</text>
            <type>Wikipedia</type>
        </link>
    </wpt>
    <wpt lat="59.33361053" lon="18.0447216">
        <name>Trygg-Hansa-huset</name>
        <cmt>Byggnader på Kungsholmen. Planerade byggprojekt i Stockholm.</cmt>
        <desc>Trygg-Hansa-huset</desc>
        <link href="http://sv.wikipedia.org/wiki/Trygg-Hansa-huset">
            <text>Trygg-Hansa-huset</text>
            <type>Wikipedia</type>
        </link>
    </wpt>
    <wpt lat="59.32527778" lon="18.07055556">
        <name>Börshuset</name>
        <cmt>Stockholms politiska historia. Sveriges ekonomiska historia. Byggnader i Gamla stan.</cmt>
        <desc>Börshuset</desc>
        <link href="http://sv.wikipedia.org/wiki/Börshuset">
            <text>Börshuset</text>
            <type>Wikipedia</type>
        </link>
    </wpt>
    <wpt lat="59.325025" lon="18.07134444">
        <name>Grillska huset</name>
        <cmt>Grill. Byggnader i Gamla stan.</cmt>
        <desc>Grillska huset</desc>
        <link href="http://sv.wikipedia.org/wiki/Grillska_huset">
            <text>Grillska huset</text>
            <type>Wikipedia</type>
        </link>
    </wpt>
    <wpt lat="59.32561111" lon="18.06624985">
        <name>Riddarhustorget</name>
        <cmt>Gator och torg i Gamla stan.</cmt>
        <desc>Riddarhustorget</desc>
        <link href="http://sv.wikipedia.org/wiki/Riddarhustorget">
            <text>Riddarhustorget</text>
            <type>Wikipedia</type>
        </link>
    </wpt>
    <wpt lat="59.32616667" lon="18.06705556">
        <name>Rådhusgränd</name>
        <cmt>Gator och torg i Gamla stan.</cmt>
        <desc>Rådhusgränd</desc>
        <link href="http://sv.wikipedia.org/wiki/Rådhusgränd">
            <text>Rådhusgränd</text>
            <type>Wikipedia</type>
        </link>
    </wpt>
    <wpt lat="59.33166667" lon="18.05611111">
        <name>Cityterminalen</name>
        <cmt>Bussterminaler i Sverige. Byggnader på Norrmalm.</cmt>
        <desc>Cityterminalen</desc>
        <link href="http://sv.wikipedia.org/wiki/Cityterminalen">
            <text>Cityterminalen</text>
            <type>Wikipedia</type>
        </link>
    </wpt>
    <wpt lat="59.3275" lon="18.055">
        <name>Stockholms stadshus</name>
        <cmt>Byggnader på Kungsholmen. Stockholms stadshus. Kommunhus i Sverige.</cmt>
        <desc>Stockholms stadshus</desc>
        <link href="http://sv.wikipedia.org/wiki/Stockholms_stadshus">
            <text>Stockholms stadshus</text>
            <type>Wikipedia</type>
        </link>
    </wpt>
    <wpt lat="59.34027778" lon="18.02583333">
        <name>Rörstrands Porslinsfabrik</name>
        <cmt>Industriföretag i Stockholm. Industriföretag i Lidköping. Sveriges industrihistoria. Ej längre existerande
            svenska keramikföretag. UVF. Porslinsmärken.
        </cmt>
        <desc>Rörstrands Porslinsfabrik</desc>
        <link href="http://sv.wikipedia.org/wiki/Rörstrands_Porslinsfabrik">
            <text>Rörstrands Porslinsfabrik</text>
            <type>Wikipedia</type>
        </link>
    </wpt>
    <wpt lat="59.32472229" lon="18.07052803">
        <name>Skomakargatan</name>
        <cmt>Gator och torg i Gamla stan.</cmt>
        <desc>Skomakargatan</desc>
        <link href="http://sv.wikipedia.org/wiki/Skomakargatan">
            <text>Skomakargatan</text>
            <type>Wikipedia</type>
        </link>
    </wpt>
    <wpt lat="59.32436111" lon="18.06553611">
        <name>Hebbeska huset, Riddarholmen</name>
        <cmt>Byggnader på Riddarholmen. Hebbe.</cmt>
        <desc>Hebbeska huset, Riddarholmen</desc>
        <link href="http://sv.wikipedia.org/wiki/Hebbeska_huset,_Riddarholmen">
            <text>Hebbeska huset, Riddarholmen</text>
            <type>Wikipedia</type>
        </link>
    </wpt>
    <wpt lat="59.32483292" lon="18.07033348">
        <name>Kåkbrinken</name>
        <cmt>Gator och torg i Gamla stan.</cmt>
        <desc>Kåkbrinken</desc>
        <link href="http://sv.wikipedia.org/wiki/Kåkbrinken">
            <text>Kåkbrinken</text>
            <type>Wikipedia</type>
        </link>
    </wpt>
    <wpt lat="59.324875" lon="18.06883333">
        <name>Sven Vintappares gränd</name>
        <cmt>Gator och torg i Gamla stan.</cmt>
        <desc>Sven Vintappares gränd</desc>
        <link href="http://sv.wikipedia.org/wiki/Sven_Vintappares_gränd">
            <text>Sven Vintappares gränd</text>
            <type>Wikipedia</type>
        </link>
    </wpt>
    <wpt lat="59.32441667" lon="18.06997222">
        <name>Västerlånggatan</name>
        <cmt>Gator och torg i Gamla stan.</cmt>
        <desc>Västerlånggatan</desc>
        <link href="http://sv.wikipedia.org/wiki/Västerlånggatan">
            <text>Västerlånggatan</text>
            <type>Wikipedia</type>
        </link>
    </wpt>
    <wpt lat="59.32486111" lon="18.07113889">
        <name>Svartmangatan</name>
        <cmt>Gator och torg i Gamla stan.</cmt>
        <desc>Svartmangatan</desc>
        <link href="http://sv.wikipedia.org/wiki/Svartmangatan">
            <text>Svartmangatan</text>
            <type>Wikipedia</type>
        </link>
    </wpt>
    <wpt lat="59.33138889" lon="18.03833333">
        <name>Kronprinsessan Lovisas vårdanstalt</name>
        <cmt>Ej längre existerande byggnader på Kungsholmen. Sjukhus i Stockholms län. Ugglan. Stockholms historia.
            Byggnader ritade av Axel Kumlien.
        </cmt>
        <desc>Kronprinsessan Lovisas vårdanstalt</desc>
        <link href="http://sv.wikipedia.org/wiki/Kronprinsessan_Lovisas_vårdanstalt">
            <text>Kronprinsessan Lovisas vårdanstalt</text>
            <type>Wikipedia</type>
        </link>
    </wpt>
    <wpt lat="59.33027778" lon="18.06027778">
        <name>Esselte-huset</name>
        <cmt>Funktionalistisk arkitektur. Byggnader ritade av Ivar Tengbom. Byggnader på Norrmalm.</cmt>
        <desc>Esselte-huset</desc>
        <link href="http://sv.wikipedia.org/wiki/Esselte-huset">
            <text>Esselte-huset</text>
            <type>Wikipedia</type>
        </link>
    </wpt>
    <wpt lat="59.33166667" lon="18.06083333">
        <name>T-Centralen</name>
        <cmt>Norrmalm. Järnvägsstationer invigda 1957. Stockholms tunnelbanestationer.</cmt>
        <desc>T-Centralen</desc>
        <link href="http://sv.wikipedia.org/wiki/T-Centralen">
            <text>T-Centralen</text>
            <type>Wikipedia</type>
        </link>
    </wpt>
    <wpt lat="59.32902778" lon="18.04986111">
        <name>Bergsgatan, Stockholm</name>
        <cmt>Gator och torg på Kungsholmen.</cmt>
        <desc>Bergsgatan, Stockholm</desc>
        <link href="http://sv.wikipedia.org/wiki/Bergsgatan,_Stockholm">
            <text>Bergsgatan, Stockholm</text>
            <type>Wikipedia</type>
        </link>
    </wpt>
    <wpt lat="59.32555556" lon="18.07222222">
        <name>Järnpojke</name>
        <cmt>Skulpturer av Liss Eriksson. Skulpturer i Gamla stan.</cmt>
        <desc>Järnpojke</desc>
        <link href="http://sv.wikipedia.org/wiki/Järnpojke">
            <text>Järnpojke</text>
            <type>Wikipedia</type>
        </link>
    </wpt>
    <wpt lat="59.325" lon="18.06388889">
        <name>Riddarholmsbranden 1802</name>
        <cmt>Religionsåret 1802. 1802 i Sverige. Bränder i Stockholm. Sverige under den gustavianska tiden.
            Riddarholmen. Kyrkbränder i Sverige. Bränder 1802.
        </cmt>
        <desc>Riddarholmsbranden 1802</desc>
        <link href="http://sv.wikipedia.org/wiki/Riddarholmsbranden_1802">
            <text>Riddarholmsbranden 1802</text>
            <type>Wikipedia</type>
        </link>
    </wpt>
    <wpt lat="59.33222222" lon="18.05916667">
        <name>Centralposthuset, Stockholm</name>
        <cmt>Byggnader på Norrmalm. Byggnadsminnen i Stockholms kommun. Byggnader invigda under 1900-talet. Postväsen.
            Ferdinand Boberg. Historiska offentliga byggnader i Sverige.
        </cmt>
        <desc>Centralposthuset, Stockholm</desc>
        <link href="http://sv.wikipedia.org/wiki/Centralposthuset,_Stockholm">
            <text>Centralposthuset, Stockholm</text>
            <type>Wikipedia</type>
        </link>
    </wpt>
    <wpt lat="59.33611111" lon="18.02166667">
        <name>Sällskapet barnavård</name>
        <cmt>Byggnader på Kungsholmen. Ugglan. Organisationer i Stockholm. Stadshagen. Ej längre existerande utbildning
            i Stockholm.
        </cmt>
        <desc>Sällskapet barnavård</desc>
        <link href="http://sv.wikipedia.org/wiki/Sällskapet_barnavård">
            <text>Sällskapet barnavård</text>
            <type>Wikipedia</type>
        </link>
    </wpt>
    <wpt lat="59.33027778" lon="18.05833333">
        <name>Nils Ericson (staty)</name>
        <cmt>Norrmalm. Skulpturer i Stockholm.</cmt>
        <desc>Nils Ericson (staty)</desc>
        <link href="http://sv.wikipedia.org/wiki/Nils_Ericson_(staty)">
            <text>Nils Ericson (staty)</text>
            <type>Wikipedia</type>
        </link>
    </wpt>
    <wpt lat="59.33222198" lon="18.05638885">
        <name>Bagges sedeltryckeri</name>
        <cmt>Svenska tryckerier. Byggnader ritade av Ernst Stenhammar. Ej längre existerande byggnader på Norrmalm.
        </cmt>
        <desc>Bagges sedeltryckeri</desc>
        <link href="http://sv.wikipedia.org/wiki/Bagges_sedeltryckeri">
            <text>Bagges sedeltryckeri</text>
            <type>Wikipedia</type>
        </link>
    </wpt>
    <wpt lat="59.36166667" lon="17.98833333">
        <name>Solna brandstation</name>
        <cmt>Råsunda. Byggnader i Solna kommun. Brandstationer i Stockholm. Illustrationsbehov-Stockholm.</cmt>
        <desc>Solna brandstation</desc>
        <link href="http://sv.wikipedia.org/wiki/Solna_brandstation">
            <text>Solna brandstation</text>
            <type>Wikipedia</type>
        </link>
    </wpt>
    <wpt lat="59.367975" lon="18.00071111">
        <name>Vasalund</name>
        <cmt>Solna kommun.</cmt>
        <desc>Vasalund</desc>
        <link href="http://sv.wikipedia.org/wiki/Vasalund">
            <text>Vasalund</text>
            <type>Wikipedia</type>
        </link>
    </wpt>
    <wpt lat="59.33250046" lon="18.03888893">
        <name>Celsiusgatan, Stockholm</name>
        <cmt>Gator och torg på Kungsholmen.</cmt>
        <desc>Celsiusgatan, Stockholm</desc>
        <link href="http://sv.wikipedia.org/wiki/Celsiusgatan,_Stockholm">
            <text>Celsiusgatan, Stockholm</text>
            <type>Wikipedia</type>
        </link>
    </wpt>
    <wpt lat="59.32666667" lon="18.06694444">
        <name>Rannsakningsfängelset, Myntgatan</name>
        <cmt>Nedlagda fängelser i Stockholm. Ej längre existerande byggnader i Gamla stan.</cmt>
        <desc>Rannsakningsfängelset, Myntgatan</desc>
        <link href="http://sv.wikipedia.org/wiki/Rannsakningsfängelset,_Myntgatan">
            <text>Rannsakningsfängelset, Myntgatan</text>
            <type>Wikipedia</type>
        </link>
    </wpt>
    <wpt lat="59.32425556" lon="18.06429722">
        <name>Östra Gymnasiehuset</name>
        <cmt>Byggnader på Riddarholmen.</cmt>
        <desc>Östra Gymnasiehuset</desc>
        <link href="http://sv.wikipedia.org/wiki/Östra_Gymnasiehuset">
            <text>Östra Gymnasiehuset</text>
            <type>Wikipedia</type>
        </link>
    </wpt>
    <wpt lat="59.32877778" lon="18.06163889">
        <name>Tysta Mari</name>
        <cmt>Företag bildade 1834. Kaféer i Stockholm. Norrmalm. Företag bildade 1974. Företag upplösta 1954.</cmt>
        <desc>Tysta Mari</desc>
        <link href="http://sv.wikipedia.org/wiki/Tysta_Mari">
            <text>Tysta Mari</text>
            <type>Wikipedia</type>
        </link>
    </wpt>
    <wpt lat="59.32666667" lon="18.07111111">
        <name>Stockholm (tätort)</name>
        <cmt>Orter i Tyresö kommun. Orter i Haninge kommun. Orter i Sollentuna kommun. Orter i Danderyds kommun. Orter i
            Botkyrka kommun. Orter i Stockholms kommun. Orter i Nacka kommun. Orter i Huddinge kommun. Orter i Solna
            kommun. Orter i Järfälla kommun.
        </cmt>
        <desc>Stockholm (tätort)</desc>
        <link href="http://sv.wikipedia.org/wiki/Stockholm_(tätort)">
            <text>Stockholm (tätort)</text>
            <type>Wikipedia</type>
        </link>
    </wpt>
    <wpt lat="59.32486111" lon="18.07027778">
        <name>Seyfridtzska huset</name>
        <cmt>Byggnader i Gamla stan.</cmt>
        <desc>Seyfridtzska huset</desc>
        <link href="http://sv.wikipedia.org/wiki/Seyfridtzska_huset">
            <text>Seyfridtzska huset</text>
            <type>Wikipedia</type>
        </link>
    </wpt>
    <wpt lat="59.33095833" lon="18.04225">
        <name>Polishusparken</name>
        <cmt>Parker i Stockholms kommun. Kungsholmen.</cmt>
        <desc>Polishusparken</desc>
        <link href="http://sv.wikipedia.org/wiki/Polishusparken">
            <text>Polishusparken</text>
            <type>Wikipedia</type>
        </link>
    </wpt>
    <wpt lat="59.33301544" lon="18.05161095">
        <name>Driftledningsområde Stockholm</name>
        <cmt>Järnväg i Stockholms län.</cmt>
        <desc>Driftledningsområde Stockholm</desc>
        <link href="http://sv.wikipedia.org/wiki/Driftledningsområde_Stockholm">
            <text>Driftledningsområde Stockholm</text>
            <type>Wikipedia</type>
        </link>
    </wpt>
    <wpt lat="59.32666667" lon="18.06027778">
        <name>Riddarbron</name>
        <cmt>Norrmalm. Ej längre existerande byggnader i Stockholm. Broar invigda 1954. Riddarholmen. Broar i Stockholm.
            Ej längre existerande broar.
        </cmt>
        <desc>Riddarbron</desc>
        <link href="http://sv.wikipedia.org/wiki/Riddarbron">
            <text>Riddarbron</text>
            <type>Wikipedia</type>
        </link>
    </wpt>
    <wpt lat="59.32611111" lon="18.06305556">
        <name>Gråmunkeholmen 4</name>
        <cmt>Riddarholmen.</cmt>
        <desc>Gråmunkeholmen 4</desc>
        <link href="http://sv.wikipedia.org/wiki/Gråmunkeholmen_4">
            <text>Gråmunkeholmen 4</text>
            <type>Wikipedia</type>
        </link>
    </wpt>
    <wpt lat="59.37555556" lon="17.98">
        <name>Örvallen</name>
        <cmt>Byggnader i Sundbybergs kommun. Sportanläggningar invigda 2009. Arenor i Sverige. Basebollanläggningar.
            Baseboll i Sverige.
        </cmt>
        <desc>Örvallen</desc>
        <link href="http://sv.wikipedia.org/wiki/Örvallen">
            <text>Örvallen</text>
            <type>Wikipedia</type>
        </link>
    </wpt>
    <wpt lat="59.32711944" lon="18.06305278">
        <name>Strömsborg</name>
        <cmt>Gamla stan. Byggnader i Gamla stan. Öar i Stockholms kommun. Öar i Mälaren.</cmt>
        <desc>Strömsborg</desc>
        <link href="http://sv.wikipedia.org/wiki/Strömsborg">
            <text>Strömsborg</text>
            <type>Wikipedia</type>
        </link>
    </wpt>
    <wpt lat="59.32550049" lon="18.06875038">
        <name>Stora Gråmunkegränd</name>
        <cmt>Gator och torg i Gamla stan.</cmt>
        <desc>Stora Gråmunkegränd</desc>
        <link href="http://sv.wikipedia.org/wiki/Stora_Gråmunkegränd">
            <text>Stora Gråmunkegränd</text>
            <type>Wikipedia</type>
        </link>
    </wpt>
    <wpt lat="59.41388889" lon="17.91777778">
        <name>Akalla (tunnelbanestation)</name>
        <cmt>Järnvägsstationer invigda 1977. Stockholms tunnelbanestationer. Akalla.</cmt>
        <desc>Akalla (tunnelbanestation)</desc>
        <link href="http://sv.wikipedia.org/wiki/Akalla_(tunnelbanestation)">
            <text>Akalla (tunnelbanestation)</text>
            <type>Wikipedia</type>
        </link>
    </wpt>
    <wpt lat="59.32577778" lon="18.06327778">
        <name>Levins villa</name>
        <cmt>Byggnader på Riddarholmen. Villor i Stockholm.</cmt>
        <desc>Levins villa</desc>
        <link href="http://sv.wikipedia.org/wiki/Levins_villa">
            <text>Levins villa</text>
            <type>Wikipedia</type>
        </link>
    </wpt>
    <wpt lat="59.32529449" lon="18.06467247">
        <name>Hessensteinska palatset</name>
        <cmt>Byggnader avbildade i Suecian. Byggnader på Riddarholmen. Privatpalats i Stockholm.</cmt>
        <desc>Hessensteinska palatset</desc>
        <link href="http://sv.wikipedia.org/wiki/Hessensteinska_palatset">
            <text>Hessensteinska palatset</text>
            <type>Wikipedia</type>
        </link>
    </wpt>
    <wpt lat="59.40944444" lon="17.92694444">
        <name>Husby, Stockholm</name>
        <cmt>Miljonprogrammet. Rinkeby-Kista stadsdelsområde. Stadsdelar i Stockholm. Husby.</cmt>
        <desc>Husby, Stockholm</desc>
        <link href="http://sv.wikipedia.org/wiki/Husby,_Stockholm">
            <text>Husby, Stockholm</text>
            <type>Wikipedia</type>
        </link>
    </wpt>
    <wpt lat="59.32562222" lon="18.06411944">
        <name>Gamla riksarkivet</name>
        <cmt>Byggnader på Riddarholmen. Riksarkivet (Sverige).</cmt>
        <desc>Gamla riksarkivet</desc>
        <link href="http://sv.wikipedia.org/wiki/Gamla_riksarkivet">
            <text>Gamla riksarkivet</text>
            <type>Wikipedia</type>
        </link>
    </wpt>
    <wpt lat="59.32536389" lon="18.06376667">
        <name>Stenbockska palatset</name>
        <cmt>Byggnader ritade av Nicodemus Tessin d.ä.. Byggnader på Riddarholmen. Privatpalats i Stockholm.</cmt>
        <desc>Stenbockska palatset</desc>
        <link href="http://sv.wikipedia.org/wiki/Stenbockska_palatset">
            <text>Stenbockska palatset</text>
            <type>Wikipedia</type>
        </link>
    </wpt>
    <wpt lat="59.35888889" lon="17.98888889">
        <name>Solnahallen</name>
        <cmt>Byggnader i Solna kommun. Konsertscener i Stockholm. Sporthallar i Sverige. Sport i Solna kommun.
            Sportanläggningar i Stockholms län. AIK.
        </cmt>
        <desc>Solnahallen</desc>
        <link href="http://sv.wikipedia.org/wiki/Solnahallen">
            <text>Solnahallen</text>
            <type>Wikipedia</type>
        </link>
    </wpt>
    <wpt lat="59.32920556" lon="18.06204444">
        <name>Tysta Marigången</name>
        <cmt>Gator och torg på Norrmalm. Gångvägar i Sverige. Faktakoll 2014-09.</cmt>
        <desc>Tysta Marigången</desc>
        <link href="http://sv.wikipedia.org/wiki/Tysta_Marigången">
            <text>Tysta Marigången</text>
            <type>Wikipedia</type>
        </link>
    </wpt>
    <wpt lat="59.32861111" lon="18.05166667">
        <name>Gripenhielmska malmgården</name>
        <cmt>Byggnader på Kungsholmen. Malmgårdar i Stockholm.</cmt>
        <desc>Gripenhielmska malmgården</desc>
        <link href="http://sv.wikipedia.org/wiki/Gripenhielmska_malmgården">
            <text>Gripenhielmska malmgården</text>
            <type>Wikipedia</type>
        </link>
    </wpt>
    <wpt lat="59.3275" lon="18.055">
        <name>Birger jarls kenotaf</name>
        <cmt>Stockholms stadshus. Birger jarl. Minnesmärken i Sverige. Skulpturer i Kungsholmens stadsdelsområde.</cmt>
        <desc>Birger jarls kenotaf</desc>
        <link href="http://sv.wikipedia.org/wiki/Birger_jarls_kenotaf">
            <text>Birger jarls kenotaf</text>
            <type>Wikipedia</type>
        </link>
    </wpt>
    <wpt lat="59.33805556" lon="18.00416667">
        <name>Stora Bryggeriet</name>
        <cmt>Ej längre existerande svenska bryggeriföretag. Byggnader på Kungsholmen. Företag upplösta 1910.
            Industriföretag i Stockholm. Kristineberg. Företag bildade 1890. Företag som gått i konkurs.
        </cmt>
        <desc>Stora Bryggeriet</desc>
        <link href="http://sv.wikipedia.org/wiki/Stora_Bryggeriet">
            <text>Stora Bryggeriet</text>
            <type>Wikipedia</type>
        </link>
    </wpt>
    <wpt lat="59.3275" lon="18.05472222">
        <name>Eldkvarn</name>
        <cmt>Kungsholmen. Kvarnar i Stockholms län. Ej längre existerande byggnader på Kungsholmen. Industriföretag i
            Stockholm. Kvarter i Stockholm. Bränder i Stockholm. Ej längre existerande svenska kvarnar. Bränder 1878.
        </cmt>
        <desc>Eldkvarn</desc>
        <link href="http://sv.wikipedia.org/wiki/Eldkvarn">
            <text>Eldkvarn</text>
            <type>Wikipedia</type>
        </link>
    </wpt>
    <wpt lat="59.36472222" lon="17.9925">
        <name>Erik Sandbergs gata</name>
        <cmt>Solna kommun. Gator och torg i Solna. Illustrationsbehov-Stockholm.</cmt>
        <desc>Erik Sandbergs gata</desc>
        <link href="http://sv.wikipedia.org/wiki/Erik_Sandbergs_gata">
            <text>Erik Sandbergs gata</text>
            <type>Wikipedia</type>
        </link>
    </wpt>
    <wpt lat="59.33138889" lon="18.06055556">
        <name>Nils Ferlins torg</name>
        <cmt>Gator och torg på Norrmalm. Nils Ferlin.</cmt>
        <desc>Nils Ferlins torg</desc>
        <link href="http://sv.wikipedia.org/wiki/Nils_Ferlins_torg">
            <text>Nils Ferlins torg</text>
            <type>Wikipedia</type>
        </link>
    </wpt>
    <wpt lat="59.32972222" lon="18.05555556">
        <name>Stockholm Waterfront</name>
        <cmt>Hotell i Stockholm. Byggnader på Norrmalm.</cmt>
        <desc>Stockholm Waterfront</desc>
        <link href="http://sv.wikipedia.org/wiki/Stockholm_Waterfront">
            <text>Stockholm Waterfront</text>
            <type>Wikipedia</type>
        </link>
    </wpt>
    <wpt lat="59.33625031" lon="18.05355644">
        <name>Scalateatern</name>
        <cmt>Teatrar i Stockholm.</cmt>
        <desc>Scalateatern</desc>
        <link href="http://sv.wikipedia.org/wiki/Scalateatern">
            <text>Scalateatern</text>
            <type>Wikipedia</type>
        </link>
    </wpt>
    <wpt lat="59.32472229" lon="18.06444359">
        <name>Riddarholmskyrkan</name>
        <cmt>Byggnader på Riddarholmen. Kungl. Maj:ts orden. Kyrkobyggnader i Stockholms innerstad. Kyrkobyggnader
            avbildade i Suecian.
        </cmt>
        <desc>Riddarholmskyrkan</desc>
        <link href="http://sv.wikipedia.org/wiki/Riddarholmskyrkan">
            <text>Riddarholmskyrkan</text>
            <type>Wikipedia</type>
        </link>
    </wpt>
    <wpt lat="59.325675" lon="18.06851389">
        <name>Storkyrkobrinken 7</name>
        <cmt>Byggnadsminnen i Stockholms kommun. Historiska bankbyggnader i Sverige. Byggnader i Gamla stan.</cmt>
        <desc>Storkyrkobrinken 7</desc>
        <link href="http://sv.wikipedia.org/wiki/Storkyrkobrinken_7">
            <text>Storkyrkobrinken 7</text>
            <type>Wikipedia</type>
        </link>
    </wpt>
    <wpt lat="59.32833333" lon="18.05555556">
        <name>Klara sjö</name>
        <cmt>Kungsholmen. Norrmalm. Stockholms geografi. Vasastan. Mälaren.</cmt>
        <desc>Klara sjö</desc>
        <link href="http://sv.wikipedia.org/wiki/Klara_sjö">
            <text>Klara sjö</text>
            <type>Wikipedia</type>
        </link>
    </wpt>
    <wpt lat="59.34027778" lon="18.04333333">
        <name>Vasaparken, Stockholm</name>
        <cmt>Parker i Stockholms kommun. Vasastan. Sienapriset.</cmt>
        <desc>Vasaparken, Stockholm</desc>
        <link href="http://sv.wikipedia.org/wiki/Vasaparken,_Stockholm">
            <text>Vasaparken, Stockholm</text>
            <type>Wikipedia</type>
        </link>
    </wpt>
    <wpt lat="59.362375" lon="18.00860278">
        <name>Hagalunds kyrka</name>
        <cmt>Kyrkobyggnader i Solna kommun. Kyrkobyggnader i Stockholms stift. Hagalund. Religiösa byggnader invigda
            1906.
        </cmt>
        <desc>Hagalunds kyrka</desc>
        <link href="http://sv.wikipedia.org/wiki/Hagalunds_kyrka">
            <text>Hagalunds kyrka</text>
            <type>Wikipedia</type>
        </link>
    </wpt>
    <wpt lat="59.32885" lon="18.06171667">
        <name>Sheraton, Stockholm</name>
        <cmt>Byggnader på Norrmalm. Hotell i Stockholm. Nöjen i Stockholm. Företag bildade 1971.</cmt>
        <desc>Sheraton, Stockholm</desc>
        <link href="http://sv.wikipedia.org/wiki/Sheraton,_Stockholm">
            <text>Sheraton, Stockholm</text>
            <type>Wikipedia</type>
        </link>
    </wpt>
    <wpt lat="59.32777786" lon="18.05277824">
        <name>Retzius kastanj</name>
        <cmt>Enskilda träd i Stockholm. Kungsholmen.</cmt>
        <desc>Retzius kastanj</desc>
        <link href="http://sv.wikipedia.org/wiki/Retzius_kastanj">
            <text>Retzius kastanj</text>
            <type>Wikipedia</type>
        </link>
    </wpt>
    <wpt lat="59.41388889" lon="17.91694444">
        <name>Akalla</name>
        <cmt>Miljonprogrammet. Rinkeby-Kista stadsdelsområde. Stadsdelar i Stockholm. Akalla.</cmt>
        <desc>Akalla</desc>
        <link href="http://sv.wikipedia.org/wiki/Akalla">
            <text>Akalla</text>
            <type>Wikipedia</type>
        </link>
    </wpt>
    <wpt lat="59.41474915" lon="17.91436195">
        <name>Sibeliusgången</name>
        <cmt>Gator och torg i Västerort. Akalla.</cmt>
        <desc>Sibeliusgången</desc>
        <link href="http://sv.wikipedia.org/wiki/Sibeliusgången">
            <text>Sibeliusgången</text>
            <type>Wikipedia</type>
        </link>
    </wpt>
    <wpt lat="59.3347" lon="18.05303611">
        <name>Clarion Hotel Sign</name>
        <cmt>Byggnader på Norrmalm. Hotell i Stockholm. Företag bildade 2008.</cmt>
        <desc>Clarion Hotel Sign</desc>
        <link href="http://sv.wikipedia.org/wiki/Clarion_Hotel_Sign">
            <text>Clarion Hotel Sign</text>
            <type>Wikipedia</type>
        </link>
    </wpt>
    <wpt lat="59.33944444" lon="18.01611111">
        <name>Karlbergs-Bro koloniförening</name>
        <cmt>Stadshagen. Koloniträdgårdar i Stockholm.</cmt>
        <desc>Karlbergs-Bro koloniförening</desc>
        <link href="http://sv.wikipedia.org/wiki/Karlbergs-Bro_koloniförening">
            <text>Karlbergs-Bro koloniförening</text>
            <type>Wikipedia</type>
        </link>
    </wpt>
    <wpt lat="59.32805634" lon="18.04638863">
        <name>Parmmätargatan</name>
        <cmt>Gator och torg på Kungsholmen.</cmt>
        <desc>Parmmätargatan</desc>
        <link href="http://sv.wikipedia.org/wiki/Parmmätargatan">
            <text>Parmmätargatan</text>
            <type>Wikipedia</type>
        </link>
    </wpt>
    <wpt lat="59.32527778" lon="18.06111111">
        <name>Åbomska badet</name>
        <cmt>Byggnader på Riddarholmen. Sportanläggningar i Stockholms län. Kallbadhus i Stockholm.</cmt>
        <desc>Åbomska badet</desc>
        <link href="http://sv.wikipedia.org/wiki/Åbomska_badet">
            <text>Åbomska badet</text>
            <type>Wikipedia</type>
        </link>
    </wpt>
    <wpt lat="59.34341049" lon="18.01573372">
        <name>Karlberg (område)</name>
        <cmt>Solna kommun.</cmt>
        <desc>Karlberg (område)</desc>
        <link href="http://sv.wikipedia.org/wiki/Karlberg_(område)">
            <text>Karlberg (område)</text>
            <type>Wikipedia</type>
        </link>
    </wpt>
    <wpt lat="59.34027778" lon="18.01111111">
        <name>Brovaktarparken</name>
        <cmt>Parker i Stockholms kommun. Stadshagen. Sienapriset.</cmt>
        <desc>Brovaktarparken</desc>
        <link href="http://sv.wikipedia.org/wiki/Brovaktarparken">
            <text>Brovaktarparken</text>
            <type>Wikipedia</type>
        </link>
    </wpt>
    <wpt lat="59.37541667" lon="17.96930556">
        <name>Hallonbergen (tunnelbanestation)</name>
        <cmt>Hallonbergen. Stockholms tunnelbanestationer. Järnvägsstationer invigda 1975. Sundbybergs kommun.</cmt>
        <desc>Hallonbergen (tunnelbanestation)</desc>
        <link href="http://sv.wikipedia.org/wiki/Hallonbergen_(tunnelbanestation)">
            <text>Hallonbergen (tunnelbanestation)</text>
            <type>Wikipedia</type>
        </link>
    </wpt>
    <wpt lat="59.325" lon="18.06527778">
        <name>Riddarholmsbron</name>
        <cmt>Riddarholmen. Gamla stan. Broar invigda 1958. Broar i Stockholm.</cmt>
        <desc>Riddarholmsbron</desc>
        <link href="http://sv.wikipedia.org/wiki/Riddarholmsbron">
            <text>Riddarholmsbron</text>
            <type>Wikipedia</type>
        </link>
    </wpt>
    <wpt lat="59.33349609" lon="18.0560112">
        <name>Fasching</name>
        <cmt>Jazz. Norrmalm. Konsertscener i Stockholm.</cmt>
        <desc>Fasching</desc>
        <link href="http://sv.wikipedia.org/wiki/Fasching">
            <text>Fasching</text>
            <type>Wikipedia</type>
        </link>
    </wpt>
    <wpt lat="59.33388889" lon="18.05583333">
        <name>Vasateatern</name>
        <cmt>Norrmalm. Teaterinstitutioner och teatergrupper. Teatrar i Stockholm.</cmt>
        <desc>Vasateatern</desc>
        <link href="http://sv.wikipedia.org/wiki/Vasateatern">
            <text>Vasateatern</text>
            <type>Wikipedia</type>
        </link>
    </wpt>
    <wpt lat="59.32880556" lon="18.06094444">
        <name>Vasagatan, Stockholm</name>
        <cmt>Gator och torg på Norrmalm.</cmt>
        <desc>Vasagatan, Stockholm</desc>
        <link href="http://sv.wikipedia.org/wiki/Vasagatan,_Stockholm">
            <text>Vasagatan, Stockholm</text>
            <type>Wikipedia</type>
        </link>
    </wpt>
    <wpt lat="59.32472222" lon="18.07194444">
        <name>Kvarteret Cepheus</name>
        <cmt>Kvarter i Gamla stan. Stockholms historia. Ej längre existerande byggnader i Gamla stan. Byggnader i Gamla
            stan.
        </cmt>
        <desc>Kvarteret Cepheus</desc>
        <link href="http://sv.wikipedia.org/wiki/Kvarteret_Cepheus">
            <text>Kvarteret Cepheus</text>
            <type>Wikipedia</type>
        </link>
    </wpt>
    <wpt lat="59.33333333" lon="18.01388889">
        <name>Holmia, Kungsholmen</name>
        <cmt>Kristineberg. Ej längre existerande byggnader på Kungsholmen. Svenska allmännyttiga bostadsföretag.</cmt>
        <desc>Holmia, Kungsholmen</desc>
        <link href="http://sv.wikipedia.org/wiki/Holmia,_Kungsholmen">
            <text>Holmia, Kungsholmen</text>
            <type>Wikipedia</type>
        </link>
    </wpt>
    <wpt lat="59.32583333" lon="18.07027778">
        <name>Storkyrkans tornur</name>
        <cmt>Ur. Gamla stan.</cmt>
        <desc>Storkyrkans tornur</desc>
        <link href="http://sv.wikipedia.org/wiki/Storkyrkans_tornur">
            <text>Storkyrkans tornur</text>
            <type>Wikipedia</type>
        </link>
    </wpt>
    <wpt lat="59.39761111" lon="17.94695">
        <name>Ärvinge</name>
        <cmt>Kista.</cmt>
        <desc>Ärvinge</desc>
        <link href="http://sv.wikipedia.org/wiki/Ärvinge">
            <text>Ärvinge</text>
            <type>Wikipedia</type>
        </link>
    </wpt>
    <wpt lat="59.34075" lon="18.04172222">
        <name>Sko Wera-skylten</name>
        <cmt>Vasastan. Reklam. Ljusskyltar i Stockholm.</cmt>
        <desc>Sko Wera-skylten</desc>
        <link href="http://sv.wikipedia.org/wiki/Sko_Wera-skylten">
            <text>Sko Wera-skylten</text>
            <type>Wikipedia</type>
        </link>
    </wpt>
    <wpt lat="59.41083333" lon="17.905">
        <name>Tidens väg</name>
        <cmt>Vandringsleder i Stockholms län. Stockholms kommun.</cmt>
        <desc>Tidens väg</desc>
        <link href="http://sv.wikipedia.org/wiki/Tidens_väg">
            <text>Tidens väg</text>
            <type>Wikipedia</type>
        </link>
    </wpt>
    <wpt lat="59.36472222" lon="17.99555556">
        <name>Råsunda stenstad</name>
        <cmt>Byggnader i Solna kommun. Råsunda.</cmt>
        <desc>Råsunda stenstad</desc>
        <link href="http://sv.wikipedia.org/wiki/Råsunda_stenstad">
            <text>Råsunda stenstad</text>
            <type>Wikipedia</type>
        </link>
    </wpt>
    <wpt lat="59.33583333" lon="18.05444444">
        <name>LO-borgen</name>
        <cmt>Ferdinand Boberg. Byggnader på Norrmalm. Landsorganisationen i Sverige.</cmt>
        <desc>LO-borgen</desc>
        <link href="http://sv.wikipedia.org/wiki/LO-borgen">
            <text>LO-borgen</text>
            <type>Wikipedia</type>
        </link>
    </wpt>
    <wpt lat="59.3896" lon="17.96215">
        <name>Krutbanan</name>
        <cmt>Solna kommun. Historiska järnvägslinjer i Sverige. Sundbybergs kommun.</cmt>
        <desc>Krutbanan</desc>
        <link href="http://sv.wikipedia.org/wiki/Krutbanan">
            <text>Krutbanan</text>
            <type>Wikipedia</type>
        </link>
    </wpt>
    <wpt lat="59.32611111" lon="18.05972222">
        <name>Axel Oxenstiernas staty</name>
        <cmt>Skulpturer i Gamla stan.</cmt>
        <desc>Axel Oxenstiernas staty</desc>
        <link href="http://sv.wikipedia.org/wiki/Axel_Oxenstiernas_staty">
            <text>Axel Oxenstiernas staty</text>
            <type>Wikipedia</type>
        </link>
    </wpt>
    <wpt lat="59.32519444" lon="18.06905556">
        <name>Gåsgränd</name>
        <cmt>Gator och torg i Gamla stan.</cmt>
        <desc>Gåsgränd</desc>
        <link href="http://sv.wikipedia.org/wiki/Gåsgränd">
            <text>Gåsgränd</text>
            <type>Wikipedia</type>
        </link>
    </wpt>
    <wpt lat="59.34472222" lon="17.99333333">
        <name>Huvudsta</name>
        <cmt>Stadsdelar i Solna kommun.</cmt>
        <desc>Huvudsta</desc>
        <link href="http://sv.wikipedia.org/wiki/Huvudsta">
            <text>Huvudsta</text>
            <type>Wikipedia</type>
        </link>
    </wpt>
    <wpt lat="59.32477951" lon="18.06694412">
        <name>Riddarholmsbroarna</name>
        <cmt>Skulpturer i Gamla stan.</cmt>
        <desc>Riddarholmsbroarna</desc>
        <link href="http://sv.wikipedia.org/wiki/Riddarholmsbroarna">
            <text>Riddarholmsbroarna</text>
            <type>Wikipedia</type>
        </link>
    </wpt>
    <wpt lat="59.38358056" lon="17.95836944">
        <name>Ursvik</name>
        <cmt>Stora Ursvik. Sundbybergs kommun. Lilla Ursvik.</cmt>
        <desc>Ursvik</desc>
        <link href="http://sv.wikipedia.org/wiki/Ursvik">
            <text>Ursvik</text>
            <type>Wikipedia</type>
        </link>
    </wpt>
    <wpt lat="59.39472222" lon="17.95088889">
        <name>Kymlingelänken</name>
        <cmt>Gator och torg i Västerort.</cmt>
        <desc>Kymlingelänken</desc>
        <link href="http://sv.wikipedia.org/wiki/Kymlingelänken">
            <text>Kymlingelänken</text>
            <type>Wikipedia</type>
        </link>
    </wpt>
    <wpt lat="59.33527778" lon="18.05444444">
        <name>Brantingmonumentet</name>
        <cmt>Norrmalm. Skulpturer av Carl Eldh. Verk 1952. Minnesmärken i Sverige. Personminnesmärken. Skulpturer i
            Stockholm.
        </cmt>
        <desc>Brantingmonumentet</desc>
        <link href="http://sv.wikipedia.org/wiki/Brantingmonumentet">
            <text>Brantingmonumentet</text>
            <type>Wikipedia</type>
        </link>
    </wpt>
    <wpt lat="59.32448578" lon="18.06371117">
        <name>Sparreska palatset, Riddarholmen</name>
        <cmt>Byggnader på Riddarholmen. Privatpalats i Stockholm.</cmt>
        <desc>Sparreska palatset, Riddarholmen</desc>
        <link href="http://sv.wikipedia.org/wiki/Sparreska_palatset,_Riddarholmen">
            <text>Sparreska palatset, Riddarholmen</text>
            <type>Wikipedia</type>
        </link>
    </wpt>
    <wpt lat="59.32612778" lon="18.06316944">
        <name>Norstedtshuset</name>
        <cmt>Byggnader på Riddarholmen.</cmt>
        <desc>Norstedtshuset</desc>
        <link href="http://sv.wikipedia.org/wiki/Norstedtshuset">
            <text>Norstedtshuset</text>
            <type>Wikipedia</type>
        </link>
    </wpt>
    <wpt lat="59.32396944" lon="18.06510556">
        <name>Gamla riksdagshuset</name>
        <cmt>Byggnader på Riddarholmen. Historiska byggnader för Sveriges riksdag. Stockholms historia. Byggnader ritade
            av Johan Fredrik Åbom. Byggnader ritade av Aron Johansson.
        </cmt>
        <desc>Gamla riksdagshuset</desc>
        <link href="http://sv.wikipedia.org/wiki/Gamla_riksdagshuset">
            <text>Gamla riksdagshuset</text>
            <type>Wikipedia</type>
        </link>
    </wpt>
    <wpt lat="59.32589444" lon="18.06960278">
        <name>Axel Oxenstiernas palats</name>
        <cmt>Byggnader avbildade i Suecian. Privatpalats i Stockholm. Byggnadsminnen i Stockholms kommun. Byggnader i
            Gamla stan.
        </cmt>
        <desc>Axel Oxenstiernas palats</desc>
        <link href="http://sv.wikipedia.org/wiki/Axel_Oxenstiernas_palats">
            <text>Axel Oxenstiernas palats</text>
            <type>Wikipedia</type>
        </link>
    </wpt>
    <wpt lat="59.32611084" lon="18.06638908">
        <name>Bondeska palatset</name>
        <cmt>Byggnader avbildade i Suecian. Privatpalats i Stockholm. Domstolsbyggnader i Sverige. Byggnader i Gamla
            stan.
        </cmt>
        <desc>Bondeska palatset</desc>
        <link href="http://sv.wikipedia.org/wiki/Bondeska_palatset">
            <text>Bondeska palatset</text>
            <type>Wikipedia</type>
        </link>
    </wpt>
    <wpt lat="59.33588611" lon="18.04916389">
        <name>Flat Iron Building, Stockholm</name>
        <cmt>Byggnader uppförda av Skanska. Byggnader på Norrmalm.</cmt>
        <desc>Flat Iron Building, Stockholm</desc>
        <link href="http://sv.wikipedia.org/wiki/Flat_Iron_Building,_Stockholm">
            <text>Flat Iron Building, Stockholm</text>
            <type>Wikipedia</type>
        </link>
    </wpt>
    <wpt lat="59.32970047" lon="18.04772186">
        <name>Kungsholms församling</name>
        <cmt>Historiska församlingar i Stockholms kommun.</cmt>
        <desc>Kungsholms församling</desc>
        <link href="http://sv.wikipedia.org/wiki/Kungsholms_församling">
            <text>Kungsholms församling</text>
            <type>Wikipedia</type>
        </link>
    </wpt>
    <wpt lat="59.33583333" lon="18.05361111">
        <name>Länscellfängelset på Norrmalm</name>
        <cmt>Nedlagda fängelser i Stockholm. Ej längre existerande byggnader på Norrmalm. Stockholms historia.</cmt>
        <desc>Länscellfängelset på Norrmalm</desc>
        <link href="http://sv.wikipedia.org/wiki/Länscellfängelset_på_Norrmalm">
            <text>Länscellfängelset på Norrmalm</text>
            <type>Wikipedia</type>
        </link>
    </wpt>
    <wpt lat="59.33861111" lon="18.04916667">
        <name>Gamla och Nya Rörstrandskvarnen</name>
        <cmt>Ej längre existerande byggnader i Vasastan. Kvarnar i Stockholms län. Sigtuna.</cmt>
        <desc>Gamla och Nya Rörstrandskvarnen</desc>
        <link href="http://sv.wikipedia.org/wiki/Gamla_och_Nya_Rörstrandskvarnen">
            <text>Gamla och Nya Rörstrandskvarnen</text>
            <type>Wikipedia</type>
        </link>
    </wpt>
    <wpt lat="59.32661057" lon="18.06836128">
        <name>Myntgatan</name>
        <cmt>Gator och torg i Gamla stan.</cmt>
        <desc>Myntgatan</desc>
        <link href="http://sv.wikipedia.org/wiki/Myntgatan">
            <text>Myntgatan</text>
            <type>Wikipedia</type>
        </link>
    </wpt>
    <wpt lat="59.34027778" lon="18.0375">
        <name>Capitol, Stockholm</name>
        <cmt>Nedlagda biografer i Stockholm.</cmt>
        <desc>Capitol, Stockholm</desc>
        <link href="http://sv.wikipedia.org/wiki/Capitol,_Stockholm">
            <text>Capitol, Stockholm</text>
            <type>Wikipedia</type>
        </link>
    </wpt>
    <wpt lat="59.36330833" lon="17.99901111">
        <name>Charlottenburg, Solna kommun</name>
        <cmt>Hembygdsmuseer i Sverige. Hembygdsgårdar i Sverige. Museer i Stockholms län. Solna kommun.</cmt>
        <desc>Charlottenburg, Solna kommun</desc>
        <link href="http://sv.wikipedia.org/wiki/Charlottenburg,_Solna_kommun">
            <text>Charlottenburg, Solna kommun</text>
            <type>Wikipedia</type>
        </link>
    </wpt>
    <wpt lat="59.32640839" lon="18.07112503">
        <name>Gästvåningen</name>
        <cmt>Stockholms slott.</cmt>
        <desc>Gästvåningen</desc>
        <link href="http://sv.wikipedia.org/wiki/Gästvåningen">
            <text>Gästvåningen</text>
            <type>Wikipedia</type>
        </link>
    </wpt>
    <wpt lat="59.35805556" lon="18.00166667">
        <name>Eric Grates park</name>
        <cmt>Skulpturparker i Sverige. Solna kommun.</cmt>
        <desc>Eric Grates park</desc>
        <link href="http://sv.wikipedia.org/wiki/Eric_Grates_park">
            <text>Eric Grates park</text>
            <type>Wikipedia</type>
        </link>
    </wpt>
    <wpt lat="59.33694444" lon="18.04277778">
        <name>Bonniers konsthall</name>
        <cmt>Vasastan. Bonnierfamiljen. Byggnader i Vasastan. Konstmuseer och konsthallar i Stockholm. Bildanden 2006.
            Bonnierkoncernen. Byggnader med anknytning till Bonnierfamiljen. Privata konsthallar i Sverige.
        </cmt>
        <desc>Bonniers konsthall</desc>
        <link href="http://sv.wikipedia.org/wiki/Bonniers_konsthall">
            <text>Bonniers konsthall</text>
            <type>Wikipedia</type>
        </link>
    </wpt>
    <wpt lat="59.34041667" lon="18.03805556">
        <name>Teater Giljotin</name>
        <cmt>Teaterinstitutioner och teatergrupper. Teatrar i Stockholm.</cmt>
        <desc>Teater Giljotin</desc>
        <link href="http://sv.wikipedia.org/wiki/Teater_Giljotin">
            <text>Teater Giljotin</text>
            <type>Wikipedia</type>
        </link>
    </wpt>
    <wpt lat="59.33561111" lon="18.04055556">
        <name>Kungsholms strand</name>
        <cmt>Gator och torg på Kungsholmen.</cmt>
        <desc>Kungsholms strand</desc>
        <link href="http://sv.wikipedia.org/wiki/Kungsholms_strand">
            <text>Kungsholms strand</text>
            <type>Wikipedia</type>
        </link>
    </wpt>
    <wpt lat="59.33944321" lon="18.02388954">
        <name>Karlbergssjön</name>
        <cmt>Kungsholmen. Stockholms geografi. Vasastan. Mälaren. Solna kommun.</cmt>
        <desc>Karlbergssjön</desc>
        <link href="http://sv.wikipedia.org/wiki/Karlbergssjön">
            <text>Karlbergssjön</text>
            <type>Wikipedia</type>
        </link>
    </wpt>
    <wpt lat="59.32480621" lon="18.07275009">
        <name>Kindstugatan</name>
        <cmt>Gator och torg i Gamla stan.</cmt>
        <desc>Kindstugatan</desc>
        <link href="http://sv.wikipedia.org/wiki/Kindstugatan">
            <text>Kindstugatan</text>
            <type>Wikipedia</type>
        </link>
    </wpt>
    <wpt lat="59.32702778" lon="18.05030556">
        <name>Samuel Owens gata</name>
        <cmt>Gator och torg på Kungsholmen.</cmt>
        <desc>Samuel Owens gata</desc>
        <link href="http://sv.wikipedia.org/wiki/Samuel_Owens_gata">
            <text>Samuel Owens gata</text>
            <type>Wikipedia</type>
        </link>
    </wpt>
    <wpt lat="59.32508333" lon="18.07322222">
        <name>Köpmangatan</name>
        <cmt>Gator och torg i Gamla stan.</cmt>
        <desc>Köpmangatan</desc>
        <link href="http://sv.wikipedia.org/wiki/Köpmangatan">
            <text>Köpmangatan</text>
            <type>Wikipedia</type>
        </link>
    </wpt>
    <wpt lat="59.33166667" lon="18.05916667">
        <name>Orgelpipan 7</name>
        <cmt>Byggnader på Norrmalm.</cmt>
        <desc>Orgelpipan 7</desc>
        <link href="http://sv.wikipedia.org/wiki/Orgelpipan_7">
            <text>Orgelpipan 7</text>
            <type>Wikipedia</type>
        </link>
    </wpt>
    <wpt lat="59.33655833" lon="18.03462222">
        <name>Sportpalatset, Stockholm</name>
        <cmt>Byggnader på Kungsholmen. Kungsholmen. Badhus i Stockholm.</cmt>
        <desc>Sportpalatset, Stockholm</desc>
        <link href="http://sv.wikipedia.org/wiki/Sportpalatset,_Stockholm">
            <text>Sportpalatset, Stockholm</text>
            <type>Wikipedia</type>
        </link>
    </wpt>
    <wpt lat="59.33111111" lon="18.04638889">
        <name>Ansgariikyrkan, Stockholm</name>
        <cmt>Byggnader på Kungsholmen. Religiösa byggnader invigda 1928. Tidigare kyrkobyggnader i Sverige.</cmt>
        <desc>Ansgariikyrkan, Stockholm</desc>
        <link href="http://sv.wikipedia.org/wiki/Ansgariikyrkan,_Stockholm">
            <text>Ansgariikyrkan, Stockholm</text>
            <type>Wikipedia</type>
        </link>
    </wpt>
    <wpt lat="59.33333333" lon="18.01694444">
        <name>Gångaren 11</name>
        <cmt>Stadshagen.</cmt>
        <desc>Gångaren 11</desc>
        <link href="http://sv.wikipedia.org/wiki/Gångaren_11">
            <text>Gångaren 11</text>
            <type>Wikipedia</type>
        </link>
    </wpt>
    <wpt lat="59.32473611" lon="18.06320833">
        <name>Cruuska palatset</name>
        <cmt>Byggnader på Riddarholmen. Palats i Stockholm.</cmt>
        <desc>Cruuska palatset</desc>
        <link href="http://sv.wikipedia.org/wiki/Cruuska_palatset">
            <text>Cruuska palatset</text>
            <type>Wikipedia</type>
        </link>
    </wpt>
    <wpt lat="59.33333333" lon="18.01666667">
        <name>Kungsholmen</name>
        <cmt>Kungsholmen. Öar i Mälaren. Stockholms geografi. Öar i Stockholms kommun. Kungsholmens stadsdelsområde.
        </cmt>
        <desc>Kungsholmen</desc>
        <link href="http://sv.wikipedia.org/wiki/Kungsholmen">
            <text>Kungsholmen</text>
            <type>Wikipedia</type>
        </link>
    </wpt>
    <wpt lat="59.32480556" lon="18.06944444">
        <name>Yxsmedsgränd</name>
        <cmt>Gator och torg i Gamla stan.</cmt>
        <desc>Yxsmedsgränd</desc>
        <link href="http://sv.wikipedia.org/wiki/Yxsmedsgränd">
            <text>Yxsmedsgränd</text>
            <type>Wikipedia</type>
        </link>
    </wpt>
    <wpt lat="59.32602692" lon="18.06808281">
        <name>Brantingtorget</name>
        <cmt>Gator och torg i Gamla stan.</cmt>
        <desc>Brantingtorget</desc>
        <link href="http://sv.wikipedia.org/wiki/Brantingtorget">
            <text>Brantingtorget</text>
            <type>Wikipedia</type>
        </link>
    </wpt>
    <wpt lat="59.33027778" lon="18.05833333">
        <name>Stockholms centralstation</name>
        <cmt>Byggnader ritade av Adolf W. Edelsvärd. Byggnader på Norrmalm.</cmt>
        <desc>Stockholms centralstation</desc>
        <link href="http://sv.wikipedia.org/wiki/Stockholms_centralstation">
            <text>Stockholms centralstation</text>
            <type>Wikipedia</type>
        </link>
    </wpt>
    <wpt lat="59.33833313" lon="18.03722191">
        <name>Atlasområdet</name>
        <cmt>Informella områden. Vasastan.</cmt>
        <desc>Atlasområdet</desc>
        <link href="http://sv.wikipedia.org/wiki/Atlasområdet">
            <text>Atlasområdet</text>
            <type>Wikipedia</type>
        </link>
    </wpt>
    <wpt lat="59.33702778" lon="18.04275">
        <name>Statens musiksamlingar</name>
        <cmt>Ej längre existerande svenska statliga myndigheter.</cmt>
        <desc>Statens musiksamlingar</desc>
        <link href="http://sv.wikipedia.org/wiki/Statens_musiksamlingar">
            <text>Statens musiksamlingar</text>
            <type>Wikipedia</type>
        </link>
    </wpt>
    <wpt lat="59.3365593" lon="18.03462219">
        <name>Polar Studios</name>
        <cmt>Musik i Stockholm. Inspelningsstudior.</cmt>
        <desc>Polar Studios</desc>
        <link href="http://sv.wikipedia.org/wiki/Polar_Studios">
            <text>Polar Studios</text>
            <type>Wikipedia</type>
        </link>
    </wpt>
    <wpt lat="59.32711111" lon="18.05577778">
        <name>Stockholms-stocken</name>
        <cmt>Skulpturer i Stockholm. Kungsholmen. Skulpturer i Kungsholmens stadsdelsområde.</cmt>
        <desc>Stockholms-stocken</desc>
        <link href="http://sv.wikipedia.org/wiki/Stockholms-stocken">
            <text>Stockholms-stocken</text>
            <type>Wikipedia</type>
        </link>
    </wpt>
    <wpt lat="59.34041667" lon="18.03805556">
        <name>Pistolteatern</name>
        <cmt>Historiska verksamheter i Gamla stan. Teaterinstitutioner och teatergrupper. Teatrar i Stockholm.</cmt>
        <desc>Pistolteatern</desc>
        <link href="http://sv.wikipedia.org/wiki/Pistolteatern">
            <text>Pistolteatern</text>
            <type>Wikipedia</type>
        </link>
    </wpt>
    <wpt lat="59.34749985" lon="18.00388908">
        <name>Västra skogen (tunnelbanestation)</name>
        <cmt>Solna kommun. Stockholms tunnelbanestationer. Järnvägsstationer invigda 1975. Huvudsta.</cmt>
        <desc>Västra skogen (tunnelbanestation)</desc>
        <link href="http://sv.wikipedia.org/wiki/Västra_skogen_(tunnelbanestation)">
            <text>Västra skogen (tunnelbanestation)</text>
            <type>Wikipedia</type>
        </link>
    </wpt>
    <wpt lat="59.40944444" lon="17.92694444">
        <name>Husby (tunnelbanestation)</name>
        <cmt>Järnvägsstationer invigda 1977. Stockholms tunnelbanestationer. Husby.</cmt>
        <desc>Husby (tunnelbanestation)</desc>
        <link href="http://sv.wikipedia.org/wiki/Husby_(tunnelbanestation)">
            <text>Husby (tunnelbanestation)</text>
            <type>Wikipedia</type>
        </link>
    </wpt>
    <wpt lat="59.33030556" lon="18.04563889">
        <name>Flyborgska smällen</name>
        <cmt>Mord och mordförsök 1926. Mord i Stockholm. 1926 i Sverige.</cmt>
        <desc>Flyborgska smällen</desc>
        <link href="http://sv.wikipedia.org/wiki/Flyborgska_smällen">
            <text>Flyborgska smällen</text>
            <type>Wikipedia</type>
        </link>
    </wpt>
    <wpt lat="59.40272222" lon="17.94513889">
        <name>Kista Galleria</name>
        <cmt>Byggnader i Västerort. Kista. Köpcentrum i Stockholms län.</cmt>
        <desc>Kista Galleria</desc>
        <link href="http://sv.wikipedia.org/wiki/Kista_Galleria">
            <text>Kista Galleria</text>
            <type>Wikipedia</type>
        </link>
    </wpt>
    <wpt lat="59.32583333" lon="18.07222222">
        <name>Stora Bollhuset</name>
        <cmt>Gamla stans historia. Operahus i Sverige. Ej längre existerande byggnader i Gamla stan. Byggnader invigda
            under 1600-talet. Svensk teater före 1800.
        </cmt>
        <desc>Stora Bollhuset</desc>
        <link href="http://sv.wikipedia.org/wiki/Stora_Bollhuset">
            <text>Stora Bollhuset</text>
            <type>Wikipedia</type>
        </link>
    </wpt>