<?xml version="1.0" encoding="UTF-8"?>
<gpx xmlns:xsi="http://www.w3.org/2001/XMLSchema-instance" xmlns="http://www.topografix.com/GPX/1/1"
     xsi:schemaLocation="http://www.topografix.com/GPX/1/1 http://www.topografix.com/GPX/1/1/gpx.xsd" version="1.1"
     creator="Carl Johan Rehn">
    <metadata>
        <name>Djurgårdsstråket</name>
        <desc>GPX-koordinater för Wikipedia-artiklar.
        </desc>
        <author>
            <name>Carl Johan Rehn</name>
            <email id="care02" domain="gmail.com"/>
            <link href="https://github.com/carljohanrehn/hikepy-gpx"></link>
        </author>
        <copyright author="Carl Johan Rehn">
            <year>2016</year>
            <license>http://opendatacommons.org/licenses/odbl/1.0/</license>
        </copyright>
        <link href="http://www.openstreetmap.org/copyright/">
            <text>(c) OpenStreetMap contributors</text>
            <type>OpenStreetMap Copyright and License</type>
        </link>
    </metadata>
    <wpt lat="59.32277778" lon="18.10305556">
        <name>Alberget</name>
        <cmt>Djurgården. Sjöfart i Stockholm.</cmt>
        <desc>Alberget</desc>
        <link href="http://sv.wikipedia.org/wiki/Alberget">
            <text>Alberget</text>
            <type>Wikipedia</type>
        </link>
    </wpt>
    <wpt lat="59.31342778" lon="18.11885278">
        <name>Danvikens begravningsplats</name>
        <cmt>Sicklaön. Begravningsplatser i Stockholms län. Nacka kommun.</cmt>
        <desc>Danvikens begravningsplats</desc>
        <link href="http://sv.wikipedia.org/wiki/Danvikens_begravningsplats">
            <text>Danvikens begravningsplats</text>
            <type>Wikipedia</type>
        </link>
    </wpt>
    <wpt lat="59.31446389" lon="18.12263056">
        <name>Finnboda</name>
        <cmt>Nacka kommun.</cmt>
        <desc>Finnboda</desc>
        <link href="http://sv.wikipedia.org/wiki/Finnboda">
            <text>Finnboda</text>
            <type>Wikipedia</type>
        </link>
    </wpt>
    <wpt lat="59.31558611" lon="18.12450278">
        <name>Finnboda Varv</name>
        <cmt>Företag upplösta 1991. Företag i Nacka kommun. Stålbyggnadsföretag. Företag bildade 1878. Nedlagda svenska
            skeppsvarv. Ej längre existerande svenska verkstadsindustriföretag. Företag som gått i konkurs.
        </cmt>
        <desc>Finnboda Varv</desc>
        <link href="http://sv.wikipedia.org/wiki/Finnboda_Varv">
            <text>Finnboda Varv</text>
            <type>Wikipedia</type>
        </link>
    </wpt>
    <wpt lat="59.32666667" lon="18.09666667">
        <name>Jägarhyddan</name>
        <cmt>1897 i Sverige. Villor på Djurgården. Arkitekturåret 1897.</cmt>
        <desc>Jägarhyddan</desc>
        <link href="http://sv.wikipedia.org/wiki/Jägarhyddan">
            <text>Jägarhyddan</text>
            <type>Wikipedia</type>
        </link>
    </wpt>
    <wpt lat="59.31444444" lon="18.1075">
        <name>Danvikens hospital</name>
        <cmt>Sjukhus i Stockholms län. NCC. Byggnader i Nacka kommun.</cmt>
        <desc>Danvikens hospital</desc>
        <link href="http://sv.wikipedia.org/wiki/Danvikens_hospital">
            <text>Danvikens hospital</text>
            <type>Wikipedia</type>
        </link>
    </wpt>
    <wpt lat="59.32222222" lon="18.07277778">
        <name>Bacchi Wapen</name>
        <cmt>Historiska verksamheter i Gamla stan. Företag upplösta 2002. Nedlagda nattklubbar i Stockholm. Nöjeslokaler
            i Stockholm. Illustrationsbehov-Stockholms historia. Företag som gått i konkurs.
        </cmt>
        <desc>Bacchi Wapen</desc>
        <link href="http://sv.wikipedia.org/wiki/Bacchi_Wapen">
            <text>Bacchi Wapen</text>
            <type>Wikipedia</type>
        </link>
    </wpt>
    <wpt lat="59.32942778" lon="18.06880278">
        <name>Gustav II Adolfs staty, Stockholm</name>
        <cmt>Ryttarstatyer i Sverige. Skulpturer i Stockholm. Regentskulpturer i Sverige.</cmt>
        <desc>Gustav II Adolfs staty, Stockholm</desc>
        <link href="http://sv.wikipedia.org/wiki/Gustav_II_Adolfs_staty,_Stockholm">
            <text>Gustav II Adolfs staty, Stockholm</text>
            <type>Wikipedia</type>
        </link>
    </wpt>
    <wpt lat="59.32429167" lon="18.07528056">
        <name>Pauliska huset</name>
        <cmt>Byggnader i Gamla stan. Skeppsbron.</cmt>
        <desc>Pauliska huset</desc>
        <link href="http://sv.wikipedia.org/wiki/Pauliska_huset">
            <text>Pauliska huset</text>
            <type>Wikipedia</type>
        </link>
    </wpt>
    <wpt lat="59.325" lon="18.073">
        <name>Bartelska och Törneska husen</name>
        <cmt>Byggnadsminnen i Stockholms kommun. Byggnader i Gamla stan.</cmt>
        <desc>Bartelska och Törneska husen</desc>
        <link href="http://sv.wikipedia.org/wiki/Bartelska_och_Törneska_husen">
            <text>Bartelska och Törneska husen</text>
            <type>Wikipedia</type>
        </link>
    </wpt>
    <wpt lat="59.33366667" lon="18.07688889">
        <name>Almlöfsgatan</name>
        <cmt>Gator och torg på Östermalm.</cmt>
        <desc>Almlöfsgatan</desc>
        <link href="http://sv.wikipedia.org/wiki/Almlöfsgatan">
            <text>Almlöfsgatan</text>
            <type>Wikipedia</type>
        </link>
    </wpt>
    <wpt lat="59.33188889" lon="18.08316667">
        <name>Grevgatan</name>
        <cmt>Gator och torg på Östermalm.</cmt>
        <desc>Grevgatan</desc>
        <link href="http://sv.wikipedia.org/wiki/Grevgatan">
            <text>Grevgatan</text>
            <type>Wikipedia</type>
        </link>
    </wpt>
    <wpt lat="59.322825" lon="18.07174167">
        <name>Funckska huset</name>
        <cmt>Ferdinand Boberg. Byggnader i Gamla stan.</cmt>
        <desc>Funckska huset</desc>
        <link href="http://sv.wikipedia.org/wiki/Funckska_huset">
            <text>Funckska huset</text>
            <type>Wikipedia</type>
        </link>
    </wpt>
    <wpt lat="59.32722222" lon="18.09777778">
        <name>Allmänna konst- och industriutställningen</name>
        <cmt>Vetenskapsåret 1897. Djurgården. 1897 i Sverige. Kultur och konst i Stockholm. Konståret 1897.
            Utställningar i Sverige. Stockholms historia.
        </cmt>
        <desc>Allmänna konst- och industriutställningen</desc>
        <link href="http://sv.wikipedia.org/wiki/Allmänna_konst-_och_industriutställningen">
            <text>Allmänna konst- och industriutställningen</text>
            <type>Wikipedia</type>
        </link>
    </wpt>
    <wpt lat="59.33277778" lon="18.085">
        <name>Makedoniens ambassad i Stockholm</name>
        <cmt>Relationer mellan Makedonien och Sverige. Byggnader på Östermalm. Ambassader i Stockholm. Bildanden 1994.
        </cmt>
        <desc>Makedoniens ambassad i Stockholm</desc>
        <link href="http://sv.wikipedia.org/wiki/Makedoniens_ambassad_i_Stockholm">
            <text>Makedoniens ambassad i Stockholm</text>
            <type>Wikipedia</type>
        </link>
    </wpt>
    <wpt lat="59.33288889" lon="18.07808333">
        <name>Väpnargatan</name>
        <cmt>Gator och torg på Östermalm.</cmt>
        <desc>Väpnargatan</desc>
        <link href="http://sv.wikipedia.org/wiki/Väpnargatan">
            <text>Väpnargatan</text>
            <type>Wikipedia</type>
        </link>
    </wpt>
    <wpt lat="59.33497238" lon="18.07419395">
        <name>Spegeln, Stockholm</name>
        <cmt>Östermalm. Nedlagda biografer i Stockholm.</cmt>
        <desc>Spegeln, Stockholm</desc>
        <link href="http://sv.wikipedia.org/wiki/Spegeln,_Stockholm">
            <text>Spegeln, Stockholm</text>
            <type>Wikipedia</type>
        </link>
    </wpt>
    <wpt lat="59.32361111" lon="18.07444444">
        <name>Gamla stan</name>
        <cmt>Riksintressen för kulturmiljövården i Stockholms län. Gamla stan. Stadsdelar i Stockholm.</cmt>
        <desc>Gamla stan</desc>
        <link href="http://sv.wikipedia.org/wiki/Gamla_stan">
            <text>Gamla stan</text>
            <type>Wikipedia</type>
        </link>
    </wpt>
    <wpt lat="59.32261111" lon="18.07263889">
        <name>Triewaldsgränd</name>
        <cmt>Gator och torg i Gamla stan.</cmt>
        <desc>Triewaldsgränd</desc>
        <link href="http://sv.wikipedia.org/wiki/Triewaldsgränd">
            <text>Triewaldsgränd</text>
            <type>Wikipedia</type>
        </link>
    </wpt>
    <wpt lat="59.32777786" lon="18.10388947">
        <name>Delsbogården</name>
        <cmt>Skansen.</cmt>
        <desc>Delsbogården</desc>
        <link href="http://sv.wikipedia.org/wiki/Delsbogården">
            <text>Delsbogården</text>
            <type>Wikipedia</type>
        </link>
    </wpt>
    <wpt lat="59.32263947" lon="18.07433319">
        <name>Norra Bankogränd</name>
        <cmt>Gator och torg i Gamla stan.</cmt>
        <desc>Norra Bankogränd</desc>
        <link href="http://sv.wikipedia.org/wiki/Norra_Bankogränd">
            <text>Norra Bankogränd</text>
            <type>Wikipedia</type>
        </link>
    </wpt>
    <wpt lat="59.33208889" lon="18.07235">
        <name>Barclayska huset</name>
        <cmt>Privatpalats i Stockholm. Ej längre existerande byggnader på Norrmalm. Kungsträdgårdsgatan.</cmt>
        <desc>Barclayska huset</desc>
        <link href="http://sv.wikipedia.org/wiki/Barclayska_huset">
            <text>Barclayska huset</text>
            <type>Wikipedia</type>
        </link>
    </wpt>
    <wpt lat="59.33166667" lon="18.07222222">
        <name>Sankta Eugenia katolska församling</name>
        <cmt>Katolska församlingar i Sverige. Kyrkobyggnader i Stockholms innerstad. Kristendom i Stockholm.
            Kungsträdgårdsgatan. Jesuitorden.
        </cmt>
        <desc>Sankta Eugenia katolska församling</desc>
        <link href="http://sv.wikipedia.org/wiki/Sankta_Eugenia_katolska_församling">
            <text>Sankta Eugenia katolska församling</text>
            <type>Wikipedia</type>
        </link>
    </wpt>
    <wpt lat="59.33611111" lon="18.09138889">
        <name>Bromska palatset</name>
        <cmt>Privatpalats i Stockholm. Byggnader på Östermalm. Byggnader ritade av Erik Lallerstedt.</cmt>
        <desc>Bromska palatset</desc>
        <link href="http://sv.wikipedia.org/wiki/Bromska_palatset">
            <text>Bromska palatset</text>
            <type>Wikipedia</type>
        </link>
    </wpt>
    <wpt lat="59.32880278" lon="18.07751944">
        <name>Kyrkholmen</name>
        <cmt>Blasieholmen. Före detta öar.</cmt>
        <desc>Kyrkholmen</desc>
        <link href="http://sv.wikipedia.org/wiki/Kyrkholmen">
            <text>Kyrkholmen</text>
            <type>Wikipedia</type>
        </link>
    </wpt>
    <wpt lat="59.32516667" lon="18.07536111">
        <name>Nygränd</name>
        <cmt>Gator och torg i Gamla stan.</cmt>
        <desc>Nygränd</desc>
        <link href="http://sv.wikipedia.org/wiki/Nygränd">
            <text>Nygränd</text>
            <type>Wikipedia</type>
        </link>
    </wpt>
    <wpt lat="59.32972222" lon="18.09638889">
        <name>Lejonslätten</name>
        <cmt>Djurgården.</cmt>
        <desc>Lejonslätten</desc>
        <link href="http://sv.wikipedia.org/wiki/Lejonslätten">
            <text>Lejonslätten</text>
            <type>Wikipedia</type>
        </link>
    </wpt>
    <wpt lat="59.32919444" lon="18.10188889">
        <name>Jenny Lind-statyn</name>
        <cmt>Skulpturer i Stockholm. Djurgården.</cmt>
        <desc>Jenny Lind-statyn</desc>
        <link href="http://sv.wikipedia.org/wiki/Jenny_Lind-statyn">
            <text>Jenny Lind-statyn</text>
            <type>Wikipedia</type>
        </link>
    </wpt>
    <wpt lat="59.33166667" lon="18.07472222">
        <name>Arsenalspalatset</name>
        <cmt>Byggnader på Norrmalm.</cmt>
        <desc>Arsenalspalatset</desc>
        <link href="http://sv.wikipedia.org/wiki/Arsenalspalatset">
            <text>Arsenalspalatset</text>
            <type>Wikipedia</type>
        </link>
    </wpt>
    <wpt lat="59.32760278" lon="18.12517778">
        <name>Rosendals stall</name>
        <cmt>Byggnader ritade av Fredrik Blom. Byggnader på Djurgården.</cmt>
        <desc>Rosendals stall</desc>
        <link href="http://sv.wikipedia.org/wiki/Rosendals_stall">
            <text>Rosendals stall</text>
            <type>Wikipedia</type>
        </link>
    </wpt>
    <wpt lat="59.32416667" lon="18.07166667">
        <name>Tyska kyrkan, Stockholm</name>
        <cmt>Kyrkobyggnader i Gamla stan. Relationer mellan Sverige och Tyskland. Klockspel i Sverige.</cmt>
        <desc>Tyska kyrkan, Stockholm</desc>
        <link href="http://sv.wikipedia.org/wiki/Tyska_kyrkan,_Stockholm">
            <text>Tyska kyrkan, Stockholm</text>
            <type>Wikipedia</type>
        </link>
    </wpt>
    <wpt lat="59.32444382" lon="18.07250023">
        <name>Kvarteret Cassiopea</name>
        <cmt>Kvarter i Stockholm. Stockholms historia.</cmt>
        <desc>Kvarteret Cassiopea</desc>
        <link href="http://sv.wikipedia.org/wiki/Kvarteret_Cassiopea">
            <text>Kvarteret Cassiopea</text>
            <type>Wikipedia</type>
        </link>
    </wpt>
    <wpt lat="59.33041667" lon="18.07055556">
        <name>Sankt Jacobs kyrka</name>
        <cmt>Kyrkobyggnader i Stockholms innerstad. Alla sidor föreslagna att flyttas. Byggnader på Norrmalm. Religiösa
            byggnader invigda 1643. Orgeldispositioner. Sidor föreslagna att flyttas 2014-09. Kyrkobyggnader i
            Stockholms stift.
        </cmt>
        <desc>Sankt Jacobs kyrka</desc>
        <link href="http://sv.wikipedia.org/wiki/Sankt_Jacobs_kyrka">
            <text>Sankt Jacobs kyrka</text>
            <type>Wikipedia</type>
        </link>
    </wpt>
    <wpt lat="59.32508333" lon="18.07377778">
        <name>Köpmanbrinken</name>
        <cmt>Gator och torg i Gamla stan.</cmt>
        <desc>Köpmanbrinken</desc>
        <link href="http://sv.wikipedia.org/wiki/Köpmanbrinken">
            <text>Köpmanbrinken</text>
            <type>Wikipedia</type>
        </link>
    </wpt>
    <wpt lat="59.31833267" lon="18.12194443">
        <name>Österbron</name>
        <cmt>Nedlagda byggprojekt i Stockholm. Broar i Stockholm.</cmt>
        <desc>Österbron</desc>
        <link href="http://sv.wikipedia.org/wiki/Österbron">
            <text>Österbron</text>
            <type>Wikipedia</type>
        </link>
    </wpt>
    <wpt lat="59.32375" lon="18.07336111">
        <name>Baggensgatan 27</name>
        <cmt>Byggnader i Gamla stan.</cmt>
        <desc>Baggensgatan 27</desc>
        <link href="http://sv.wikipedia.org/wiki/Baggensgatan_27">
            <text>Baggensgatan 27</text>
            <type>Wikipedia</type>
        </link>
    </wpt>
    <wpt lat="59.32722222" lon="18.07638889">
        <name>Blasieholmsleden</name>
        <cmt>Nedlagda byggprojekt i Stockholm. Blasieholmen. Motortrafikleder. Vägtrafik i Stockholm.</cmt>
        <desc>Blasieholmsleden</desc>
        <link href="http://sv.wikipedia.org/wiki/Blasieholmsleden">
            <text>Blasieholmsleden</text>
            <type>Wikipedia</type>
        </link>
    </wpt>
    <wpt lat="59.32479167" lon="18.10159167">
        <name>Kristallsalongen (friluftsteater)</name>
        <cmt>Teaterinstitutioner och teatergrupper. Teatrar i Stockholm. Illustrationsbehov-Stockholms historia.
            Friluftsteatrar. Djurgården.
        </cmt>
        <desc>Kristallsalongen (friluftsteater)</desc>
        <link href="http://sv.wikipedia.org/wiki/Kristallsalongen_(friluftsteater)">
            <text>Kristallsalongen (friluftsteater)</text>
            <type>Wikipedia</type>
        </link>
    </wpt>
    <wpt lat="59.3235" lon="18.07380556">
        <name>Fru Gunillas gränd</name>
        <cmt>Gator och torg i Gamla stan.</cmt>
        <desc>Fru Gunillas gränd</desc>
        <link href="http://sv.wikipedia.org/wiki/Fru_Gunillas_gränd">
            <text>Fru Gunillas gränd</text>
            <type>Wikipedia</type>
        </link>
    </wpt>
    <wpt lat="59.331025" lon="18.07481667">
        <name>Douglaska palatset</name>
        <cmt>Byggnader avbildade i Suecian. Byggnader på Blasieholmen. Palats i Stockholm.</cmt>
        <desc>Douglaska palatset</desc>
        <link href="http://sv.wikipedia.org/wiki/Douglaska_palatset">
            <text>Douglaska palatset</text>
            <type>Wikipedia</type>
        </link>
    </wpt>
    <wpt lat="59.32416667" lon="18.10194444">
        <name>Novilla</name>
        <cmt>Skansen. Byggnader på Djurgården.</cmt>
        <desc>Novilla</desc>
        <link href="http://sv.wikipedia.org/wiki/Novilla">
            <text>Novilla</text>
            <type>Wikipedia</type>
        </link>
    </wpt>
    <wpt lat="59.32235278" lon="18.07413611">
        <name>Skeppsbron 44</name>
        <cmt>Skeppsbron. Byggnader i Gamla stan.</cmt>
        <desc>Skeppsbron 44</desc>
        <link href="http://sv.wikipedia.org/wiki/Skeppsbron_44">
            <text>Skeppsbron 44</text>
            <type>Wikipedia</type>
        </link>
    </wpt>
    <wpt lat="59.32735556" lon="18.09098611">
        <name>Bernhard Ingelsson (sjöräddningskryssare)</name>
        <cmt>Svenska veteranfartyg. Museifartyg i Sverige. Tidigare svenska räddningsfartyg.</cmt>
        <desc>Bernhard Ingelsson (sjöräddningskryssare)</desc>
        <link href="http://sv.wikipedia.org/wiki/Bernhard_Ingelsson_(sjöräddningskryssare)">
            <text>Bernhard Ingelsson (sjöräddningskryssare)</text>
            <type>Wikipedia</type>
        </link>
    </wpt>
    <wpt lat="59.33194444" lon="18.08638889">
        <name>Grev Magnigatan</name>
        <cmt>Gator och torg på Östermalm.</cmt>
        <desc>Grev Magnigatan</desc>
        <link href="http://sv.wikipedia.org/wiki/Grev_Magnigatan">
            <text>Grev Magnigatan</text>
            <type>Wikipedia</type>
        </link>
    </wpt>
    <wpt lat="59.32386111" lon="18.09658333">
        <name>Djurgårdens brandstation</name>
        <cmt>Brandstationer i Stockholm. Djurgården.</cmt>
        <desc>Djurgårdens brandstation</desc>
        <link href="http://sv.wikipedia.org/wiki/Djurgårdens_brandstation">
            <text>Djurgårdens brandstation</text>
            <type>Wikipedia</type>
        </link>
    </wpt>
    <wpt lat="59.32803333" lon="18.08195">
        <name>Norra Brobänken</name>
        <cmt>Gator och torg på Skeppsholmen.</cmt>
        <desc>Norra Brobänken</desc>
        <link href="http://sv.wikipedia.org/wiki/Norra_Brobänken">
            <text>Norra Brobänken</text>
            <type>Wikipedia</type>
        </link>
    </wpt>
    <wpt lat="59.32638931" lon="18.14694405">
        <name>Lilla Sjötullsbron</name>
        <cmt>Broar i Stockholm. Broar invigda 1965. Djurgården.</cmt>
        <desc>Lilla Sjötullsbron</desc>
        <link href="http://sv.wikipedia.org/wiki/Lilla_Sjötullsbron">
            <text>Lilla Sjötullsbron</text>
            <type>Wikipedia</type>
        </link>
    </wpt>
    <wpt lat="59.32988611" lon="18.07361667">
        <name>Hammerska ladan</name>
        <cmt>Norrmalm. Svensk teater före 1900. Kungsträdgårdsgatan. Teatrar i Stockholm.</cmt>
        <desc>Hammerska ladan</desc>
        <link href="http://sv.wikipedia.org/wiki/Hammerska_ladan">
            <text>Hammerska ladan</text>
            <type>Wikipedia</type>
        </link>
    </wpt>
    <wpt lat="59.32361111" lon="18.07527778">
        <name>Skeppsbron, Stockholm</name>
        <cmt>Skeppsbron. Sjöfart i Stockholm. Gator och torg i Gamla stan.</cmt>
        <desc>Skeppsbron, Stockholm</desc>
        <link href="http://sv.wikipedia.org/wiki/Skeppsbron,_Stockholm">
            <text>Skeppsbron, Stockholm</text>
            <type>Wikipedia</type>
        </link>
    </wpt>
    <wpt lat="59.32472229" lon="18.10361099">
        <name>Skansen-Akvariet</name>
        <cmt>Skansen. Akvarier. Tropikmiljöer utanför tropikerna.</cmt>
        <desc>Skansen-Akvariet</desc>
        <link href="http://sv.wikipedia.org/wiki/Skansen-Akvariet">
            <text>Skansen-Akvariet</text>
            <type>Wikipedia</type>
        </link>
    </wpt>
    <wpt lat="59.32730556" lon="18.07108333">
        <name>Slottslejonen</name>
        <cmt>Djurskulpturer. Bronsskulpturer. Stockholms slott. Skulpturer i Stockholm. Skulpturer i Gamla stan.</cmt>
        <desc>Slottslejonen</desc>
        <link href="http://sv.wikipedia.org/wiki/Slottslejonen">
            <text>Slottslejonen</text>
            <type>Wikipedia</type>
        </link>
    </wpt>
    <wpt lat="59.32730556" lon="18.07108333">
        <name>Lejonbacken</name>
        <cmt>Stockholms slott. Gator och torg i Gamla stan. Byggnader ritade av Per Axel Nyström.</cmt>
        <desc>Lejonbacken</desc>
        <link href="http://sv.wikipedia.org/wiki/Lejonbacken">
            <text>Lejonbacken</text>
            <type>Wikipedia</type>
        </link>
    </wpt>
    <wpt lat="59.32166672" lon="18.15166664">
        <name>Blockhusudden</name>
        <cmt>Djurgården.</cmt>
        <desc>Blockhusudden</desc>
        <link href="http://sv.wikipedia.org/wiki/Blockhusudden">
            <text>Blockhusudden</text>
            <type>Wikipedia</type>
        </link>
    </wpt>
    <wpt lat="59.33155556" lon="18.07575">
        <name>Wedholms fisk</name>
        <cmt>Företag bildade 1985. Blasieholmen. Restauranger i Stockholm.</cmt>
        <desc>Wedholms fisk</desc>
        <link href="http://sv.wikipedia.org/wiki/Wedholms_fisk">
            <text>Wedholms fisk</text>
            <type>Wikipedia</type>
        </link>
    </wpt>
    <wpt lat="59.33129167" lon="18.07277778">
        <name>Kungsträdgårdsgatan 8</name>
        <cmt>Byggnader ritade av Ivar Tengbom. Byggnader på Norrmalm. SEB. Bankbyggnader i Sverige.
            Kungsträdgårdsgatan.
        </cmt>
        <desc>Kungsträdgårdsgatan 8</desc>
        <link href="http://sv.wikipedia.org/wiki/Kungsträdgårdsgatan_8">
            <text>Kungsträdgårdsgatan 8</text>
            <type>Wikipedia</type>
        </link>
    </wpt>
    <wpt lat="59.33115833" lon="18.07621944">
        <name>Musikaliska</name>
        <cmt>Stockholms län. Musik i Stockholm. Länsmusiken.</cmt>
        <desc>Musikaliska</desc>
        <link href="http://sv.wikipedia.org/wiki/Musikaliska">
            <text>Musikaliska</text>
            <type>Wikipedia</type>
        </link>
    </wpt>
    <wpt lat="59.33138889" lon="18.07027778">
        <name>Kungliga Trädgården 3</name>
        <cmt>Byggnader på Norrmalm.</cmt>
        <desc>Kungliga Trädgården 3</desc>
        <link href="http://sv.wikipedia.org/wiki/Kungliga_Trädgården_3">
            <text>Kungliga Trädgården 3</text>
            <type>Wikipedia</type>
        </link>
    </wpt>
    <wpt lat="59.33305556" lon="18.07194444">
        <name>Citypalatset</name>
        <cmt>Funktionalistisk arkitektur. Byggnader ritade av Ivar Tengbom. Historiska bankbyggnader i Sverige.
            Byggnader på Norrmalm.
        </cmt>
        <desc>Citypalatset</desc>
        <link href="http://sv.wikipedia.org/wiki/Citypalatset">
            <text>Citypalatset</text>
            <type>Wikipedia</type>
        </link>
    </wpt>
    <wpt lat="59.32880278" lon="18.07751944">
        <name>Museiparken, Stockholm</name>
        <cmt>Parker i Stockholms kommun. Blasieholmen.</cmt>
        <desc>Museiparken, Stockholm</desc>
        <link href="http://sv.wikipedia.org/wiki/Museiparken,_Stockholm">
            <text>Museiparken, Stockholm</text>
            <type>Wikipedia</type>
        </link>
    </wpt>
    <wpt lat="59.32448889" lon="18.07532778">
        <name>Dångerska huset</name>
        <cmt>Skeppsbron.</cmt>
        <desc>Dångerska huset</desc>
        <link href="http://sv.wikipedia.org/wiki/Dångerska_huset">
            <text>Dångerska huset</text>
            <type>Wikipedia</type>
        </link>
    </wpt>
    <wpt lat="59.32972222" lon="18.07888889">
        <name>Tullhuset, Blasieholmen</name>
        <cmt>Byggnader på Blasieholmen. Tullväsen.</cmt>
        <desc>Tullhuset, Blasieholmen</desc>
        <link href="http://sv.wikipedia.org/wiki/Tullhuset,_Blasieholmen">
            <text>Tullhuset, Blasieholmen</text>
            <type>Wikipedia</type>
        </link>
    </wpt>
    <wpt lat="59.32575" lon="18.06975">
        <name>Trångsund, Stockholm</name>
        <cmt>Gator och torg i Gamla stan.</cmt>
        <desc>Trångsund, Stockholm</desc>
        <link href="http://sv.wikipedia.org/wiki/Trångsund,_Stockholm">
            <text>Trångsund, Stockholm</text>
            <type>Wikipedia</type>
        </link>
    </wpt>
    <wpt lat="59.32388889" lon="18.12611111">
        <name>Djurgårdens bokskog</name>
        <cmt>Enskilda träd i Stockholm. Djurgården.</cmt>
        <desc>Djurgårdens bokskog</desc>
        <link href="http://sv.wikipedia.org/wiki/Djurgårdens_bokskog">
            <text>Djurgårdens bokskog</text>
            <type>Wikipedia</type>
        </link>
    </wpt>
    <wpt lat="59.330125" lon="18.079075">
        <name>Museikajen</name>
        <cmt>Gator och torg på Norrmalm. Blasieholmen.</cmt>
        <desc>Museikajen</desc>
        <link href="http://sv.wikipedia.org/wiki/Museikajen">
            <text>Museikajen</text>
            <type>Wikipedia</type>
        </link>
    </wpt>
    <wpt lat="59.33189011" lon="18.08511162">
        <name>Rederi AB Rex</name>
        <cmt>Rederier bildade 1903. Ej längre existerande svenska rederier.</cmt>
        <desc>Rederi AB Rex</desc>
        <link href="http://sv.wikipedia.org/wiki/Rederi_AB_Rex">
            <text>Rederi AB Rex</text>
            <type>Wikipedia</type>
        </link>
    </wpt>
    <wpt lat="59.32472222" lon="18.095">
        <name>Nöjesfältet</name>
        <cmt>Nedlagda nöjesparker. Djurgården.</cmt>
        <desc>Nöjesfältet</desc>
        <link href="http://sv.wikipedia.org/wiki/Nöjesfältet">
            <text>Nöjesfältet</text>
            <type>Wikipedia</type>
        </link>
    </wpt>
    <wpt lat="59.33183333" lon="18.07488889">
        <name>Slovakiens ambassad i Stockholm</name>
        <cmt>Relationer mellan Slovakien och Sverige. Blasieholmen. Ambassader i Stockholm. Byggnader på Norrmalm.</cmt>
        <desc>Slovakiens ambassad i Stockholm</desc>
        <link href="http://sv.wikipedia.org/wiki/Slovakiens_ambassad_i_Stockholm">
            <text>Slovakiens ambassad i Stockholm</text>
            <type>Wikipedia</type>
        </link>
    </wpt>
    <wpt lat="59.32388889" lon="18.10180556">
        <name>Skansenslingan</name>
        <cmt>Gator och torg på Djurgården. Illustrationsbehov.</cmt>
        <desc>Skansenslingan</desc>
        <link href="http://sv.wikipedia.org/wiki/Skansenslingan">
            <text>Skansenslingan</text>
            <type>Wikipedia</type>
        </link>
    </wpt>
    <wpt lat="59.3249" lon="18.07319">
        <name>Andromeda 7</name>
        <cmt>Byggnadsminnen i Stockholms kommun. Byggnader i Gamla stan.</cmt>
        <desc>Andromeda 7</desc>
        <link href="http://sv.wikipedia.org/wiki/Andromeda_7">
            <text>Andromeda 7</text>
            <type>Wikipedia</type>
        </link>
    </wpt>
    <wpt lat="59.33194444" lon="18.08875">
        <name>Egyptens ambassad i Stockholm</name>
        <cmt>Bildanden 1937. Relationer mellan Egypten och Sverige. Byggnader på Östermalm. Ambassader i Stockholm.
        </cmt>
        <desc>Egyptens ambassad i Stockholm</desc>
        <link href="http://sv.wikipedia.org/wiki/Egyptens_ambassad_i_Stockholm">
            <text>Egyptens ambassad i Stockholm</text>
            <type>Wikipedia</type>
        </link>
    </wpt>
    <wpt lat="59.32583333" lon="18.07027778">
        <name>Stockholms domkyrkodistrikt</name>
        <cmt>Indelningar i Stockholms kommun. Distrikt i Stockholms län.</cmt>
        <desc>Stockholms domkyrkodistrikt</desc>
        <link href="http://sv.wikipedia.org/wiki/Stockholms_domkyrkodistrikt">
            <text>Stockholms domkyrkodistrikt</text>
            <type>Wikipedia</type>
        </link>
    </wpt>
    <wpt lat="59.31510278" lon="18.11204444">
        <name>Danviks dårhus</name>
        <cmt>Mentalsjukhus i Sverige. Sjukhus i Stockholms län. Sicklaön. Byggnader i Nacka kommun.</cmt>
        <desc>Danviks dårhus</desc>
        <link href="http://sv.wikipedia.org/wiki/Danviks_dårhus">
            <text>Danviks dårhus</text>
            <type>Wikipedia</type>
        </link>
    </wpt>
    <wpt lat="59.32990265" lon="18.07811737">
        <name>Hellstrandska huset</name>
        <cmt>Byggnader på Blasieholmen. Byggnader ritade av Hagström och Ekman.</cmt>
        <desc>Hellstrandska huset</desc>
        <link href="http://sv.wikipedia.org/wiki/Hellstrandska_huset">
            <text>Hellstrandska huset</text>
            <type>Wikipedia</type>
        </link>
    </wpt>
    <wpt lat="59.32591667" lon="18.07302778">
        <name>Bollhusgränd</name>
        <cmt>Gator och torg i Gamla stan.</cmt>
        <desc>Bollhusgränd</desc>
        <link href="http://sv.wikipedia.org/wiki/Bollhusgränd">
            <text>Bollhusgränd</text>
            <type>Wikipedia</type>
        </link>
    </wpt>
    <wpt lat="59.32955556" lon="18.07291667">
        <name>Strömgatan</name>
        <cmt>Gator och torg på Norrmalm.</cmt>
        <desc>Strömgatan</desc>
        <link href="http://sv.wikipedia.org/wiki/Strömgatan">
            <text>Strömgatan</text>
            <type>Wikipedia</type>
        </link>
    </wpt>
    <wpt lat="59.33216667" lon="18.08522222">
        <name>Sloveniens ambassad i Stockholm</name>
        <cmt>Relationer mellan Slovenien och Sverige. Byggnader på Östermalm. Ambassader i Stockholm.</cmt>
        <desc>Sloveniens ambassad i Stockholm</desc>
        <link href="http://sv.wikipedia.org/wiki/Sloveniens_ambassad_i_Stockholm">
            <text>Sloveniens ambassad i Stockholm</text>
            <type>Wikipedia</type>
        </link>
    </wpt>
    <wpt lat="59.32620833" lon="18.07469167">
        <name>Stockholms telegrafstation</name>
        <cmt>Byggnader i Gamla stan. Byggnadsminnen i Stockholms kommun. Skeppsbron. Historiska offentliga byggnader i
            Sverige.
        </cmt>
        <desc>Stockholms telegrafstation</desc>
        <link href="http://sv.wikipedia.org/wiki/Stockholms_telegrafstation">
            <text>Stockholms telegrafstation</text>
            <type>Wikipedia</type>
        </link>
    </wpt>
    <wpt lat="59.32406616" lon="18.07345009">
        <name>Ahlströms jungfrubur</name>
        <cmt>Bordeller. Historiska verksamheter i Gamla stan.</cmt>
        <desc>Ahlströms jungfrubur</desc>
        <link href="http://sv.wikipedia.org/wiki/Ahlströms_jungfrubur">
            <text>Ahlströms jungfrubur</text>
            <type>Wikipedia</type>
        </link>
    </wpt>
    <wpt lat="59.32138889" lon="18.14722222">
        <name>Villa Ekudden, Stockholm</name>
        <cmt>Arkitekturåret 1874. 1874 i Sverige. Bränder i Stockholm. Villor på Djurgården. Bränder 1942.</cmt>
        <desc>Villa Ekudden, Stockholm</desc>
        <link href="http://sv.wikipedia.org/wiki/Villa_Ekudden,_Stockholm">
            <text>Villa Ekudden, Stockholm</text>
            <type>Wikipedia</type>
        </link>
    </wpt>
    <wpt lat="59.33065033" lon="18.07581902">
        <name>Kungliga Musikaliska Akademien</name>
        <cmt>Byggnader på Blasieholmen. Organisationer bildade 1771.</cmt>
        <desc>Kungliga Musikaliska Akademien</desc>
        <link href="http://sv.wikipedia.org/wiki/Kungliga_Musikaliska_Akademien">
            <text>Kungliga Musikaliska Akademien</text>
            <type>Wikipedia</type>
        </link>
    </wpt>
    <wpt lat="59.33277778" lon="18.07277778">
        <name>MEA-huset</name>
        <cmt>Byggnader på Norrmalm.</cmt>
        <desc>MEA-huset</desc>
        <link href="http://sv.wikipedia.org/wiki/MEA-huset">
            <text>MEA-huset</text>
            <type>Wikipedia</type>
        </link>
    </wpt>
    <wpt lat="59.33305556" lon="18.07194444">
        <name>BEA:s neonflygplan i Stockholm</name>
        <cmt>Flygplan. Norrmalm. Reklam. Stockholms historia. Ljusskyltar i Stockholm.</cmt>
        <desc>BEA:s neonflygplan i Stockholm</desc>
        <link href="http://sv.wikipedia.org/wiki/BEA:s_neonflygplan_i_Stockholm">
            <text>BEA:s neonflygplan i Stockholm</text>
            <type>Wikipedia</type>
        </link>
    </wpt>
    <wpt lat="59.32586944" lon="18.07150556">
        <name>Obelisken i Stockholm</name>
        <cmt>Obelisker. Skulpturer i Gamla stan. Gamla stan. Minnesmärken i Sverige.</cmt>
        <desc>Obelisken i Stockholm</desc>
        <link href="http://sv.wikipedia.org/wiki/Obelisken_i_Stockholm">
            <text>Obelisken i Stockholm</text>
            <type>Wikipedia</type>
        </link>
    </wpt>
    <wpt lat="59.3330574" lon="18.10111046">
        <name>Törnerska villan</name>
        <cmt>Villor i Sverige. Byggnader på Östermalm.</cmt>
        <desc>Törnerska villan</desc>
        <link href="http://sv.wikipedia.org/wiki/Törnerska_villan">
            <text>Törnerska villan</text>
            <type>Wikipedia</type>
        </link>
    </wpt>
    <wpt lat="59.32605556" lon="18.08655556">
        <name>Skeppsholmens folkhögskola</name>
        <cmt>Folkhögskolor i Sverige. Utbildning i Stockholm. Skeppsholmen.</cmt>
        <desc>Skeppsholmens folkhögskola</desc>
        <link href="http://sv.wikipedia.org/wiki/Skeppsholmens_folkhögskola">
            <text>Skeppsholmens folkhögskola</text>
            <type>Wikipedia</type>
        </link>
    </wpt>
    <wpt lat="59.33153333" lon="18.07255833">
        <name>Kungsträdgårdsgatan 10</name>
        <cmt>SEB. Byggnader ritade av Ivar Tengbom. Kungsträdgårdsgatan. Byggnader på Norrmalm.</cmt>
        <desc>Kungsträdgårdsgatan 10</desc>
        <link href="http://sv.wikipedia.org/wiki/Kungsträdgårdsgatan_10">
            <text>Kungsträdgårdsgatan 10</text>
            <type>Wikipedia</type>
        </link>
    </wpt>
    <wpt lat="59.32701111" lon="18.09080833">
        <name>S/S Sankt Erik</name>
        <cmt>Museifartyg i Sverige. Fartyg sjösatta 1915. K-märkta fartyg. Svenska isbrytare. Svenska ångfartyg.
            Djurgården. Fartyg byggda i Stockholm.
        </cmt>
        <desc>S/S Sankt Erik</desc>
        <link href="http://sv.wikipedia.org/wiki/S/S_Sankt_Erik">
            <text>S/S Sankt Erik</text>
            <type>Wikipedia</type>
        </link>
    </wpt>
    <wpt lat="59.32222222" lon="18.08944444">
        <name>Kastellholmen</name>
        <cmt>Öar i Stockholms kommun. Skeppsholmen.</cmt>
        <desc>Kastellholmen</desc>
        <link href="http://sv.wikipedia.org/wiki/Kastellholmen">
            <text>Kastellholmen</text>
            <type>Wikipedia</type>
        </link>
    </wpt>
    <wpt lat="59.32605" lon="18.07483611">
        <name>Ruuthska palatset</name>
        <cmt>Privatpalats i Stockholm. Skeppsbron.</cmt>
        <desc>Ruuthska palatset</desc>
        <link href="http://sv.wikipedia.org/wiki/Ruuthska_palatset">
            <text>Ruuthska palatset</text>
            <type>Wikipedia</type>
        </link>
    </wpt>
    <wpt lat="59.32188333" lon="18.15158056">
        <name>Plommonbacken</name>
        <cmt>Byggnader på Djurgården.</cmt>
        <desc>Plommonbacken</desc>
        <link href="http://sv.wikipedia.org/wiki/Plommonbacken">
            <text>Plommonbacken</text>
            <type>Wikipedia</type>
        </link>
    </wpt>
    <wpt lat="59.32738113" lon="18.07321739">
        <name>Logårdstrappan</name>
        <cmt>Stockholms slott. Skeppsbron. Gator och torg i Gamla stan.</cmt>
        <desc>Logårdstrappan</desc>
        <link href="http://sv.wikipedia.org/wiki/Logårdstrappan">
            <text>Logårdstrappan</text>
            <type>Wikipedia</type>
        </link>
    </wpt>
    <wpt lat="59.32625" lon="18.06902778">
        <name>Prästgatan</name>
        <cmt>Gator och torg i Gamla stan.</cmt>
        <desc>Prästgatan</desc>
        <link href="http://sv.wikipedia.org/wiki/Prästgatan">
            <text>Prästgatan</text>
            <type>Wikipedia</type>
        </link>
    </wpt>
    <wpt lat="59.325" lon="18.07533333">
        <name>Brunnsgränd</name>
        <cmt>Gator och torg i Gamla stan.</cmt>
        <desc>Brunnsgränd</desc>
        <link href="http://sv.wikipedia.org/wiki/Brunnsgränd">
            <text>Brunnsgränd</text>
            <type>Wikipedia</type>
        </link>
    </wpt>
    <wpt lat="59.32513889" lon="18.07261111">
        <name>Skeppar Olofs gränd</name>
        <cmt>Gator och torg i Gamla stan.</cmt>
        <desc>Skeppar Olofs gränd</desc>
        <link href="http://sv.wikipedia.org/wiki/Skeppar_Olofs_gränd">
            <text>Skeppar Olofs gränd</text>
            <type>Wikipedia</type>
        </link>
    </wpt>
    <wpt lat="59.32394409" lon="18.07511139">
        <name>Gaffelgränd</name>
        <cmt>Gator och torg i Gamla stan.</cmt>
        <desc>Gaffelgränd</desc>
        <link href="http://sv.wikipedia.org/wiki/Gaffelgränd">
            <text>Gaffelgränd</text>
            <type>Wikipedia</type>
        </link>
    </wpt>
    <wpt lat="59.32227778" lon="18.07402778">
        <name>Norra Dryckesgränd</name>
        <cmt>Gator och torg i Gamla stan.</cmt>
        <desc>Norra Dryckesgränd</desc>
        <link href="http://sv.wikipedia.org/wiki/Norra_Dryckesgränd">
            <text>Norra Dryckesgränd</text>
            <type>Wikipedia</type>
        </link>
    </wpt>
    <wpt lat="59.32213889" lon="18.07383333">
        <name>Södra Dryckesgränd</name>
        <cmt>Gator och torg i Gamla stan.</cmt>
        <desc>Södra Dryckesgränd</desc>
        <link href="http://sv.wikipedia.org/wiki/Södra_Dryckesgränd">
            <text>Södra Dryckesgränd</text>
            <type>Wikipedia</type>
        </link>
    </wpt>
    <wpt lat="59.325" lon="18.07341667">
        <name>Baggensgatan</name>
        <cmt>Gator och torg i Gamla stan.</cmt>
        <desc>Baggensgatan</desc>
        <link href="http://sv.wikipedia.org/wiki/Baggensgatan">
            <text>Baggensgatan</text>
            <type>Wikipedia</type>
        </link>
    </wpt>
    <wpt lat="59.33194444" lon="18.07666667">
        <name>Nybrovikens skridskobana</name>
        <cmt>Sportanläggningar i Stockholms län. Östermalm.</cmt>
        <desc>Nybrovikens skridskobana</desc>
        <link href="http://sv.wikipedia.org/wiki/Nybrovikens_skridskobana">
            <text>Nybrovikens skridskobana</text>
            <type>Wikipedia</type>
        </link>
    </wpt>
    <wpt lat="59.33049722" lon="18.07636111">
        <name>Bååtska palatset</name>
        <cmt>Byggnader ritade av Nicodemus Tessin d.ä.. Privatpalats i Stockholm. Byggnadsminnen i Stockholms kommun.
            Byggnader avbildade i Suecian. Byggnader på Blasieholmen.
        </cmt>
        <desc>Bååtska palatset</desc>
        <link href="http://sv.wikipedia.org/wiki/Bååtska_palatset">
            <text>Bååtska palatset</text>
            <type>Wikipedia</type>
        </link>
    </wpt>
    <wpt lat="59.32833333" lon="18.06972222">
        <name>Norrbrobasaren</name>
        <cmt>Köpcentrum i Stockholms län. Ej längre existerande byggnader på Norrmalm.</cmt>
        <desc>Norrbrobasaren</desc>
        <link href="http://sv.wikipedia.org/wiki/Norrbrobasaren">
            <text>Norrbrobasaren</text>
            <type>Wikipedia</type>
        </link>
    </wpt>
    <wpt lat="59.32055556" lon="18.09916667">
        <name>Gustav V-dockan</name>
        <cmt>Sjöfart i Stockholm. Djurgården. Gustaf V.</cmt>
        <desc>Gustav V-dockan</desc>
        <link href="http://sv.wikipedia.org/wiki/Gustav_V-dockan">
            <text>Gustav V-dockan</text>
            <type>Wikipedia</type>
        </link>
    </wpt>
    <wpt lat="59.32531944" lon="18.07134167">
        <name>Stockholms domkyrkoförsamling</name>
        <cmt>Norrmalm. Församlingar i Stockholms kommun. Verksamheter i Gamla stan.</cmt>
        <desc>Stockholms domkyrkoförsamling</desc>
        <link href="http://sv.wikipedia.org/wiki/Stockholms_domkyrkoförsamling">
            <text>Stockholms domkyrkoförsamling</text>
            <type>Wikipedia</type>
        </link>
    </wpt>
    <wpt lat="59.32269444" lon="18.07305556">
        <name>Järntorget, Stockholm</name>
        <cmt>Gator och torg i Gamla stan.</cmt>
        <desc>Järntorget, Stockholm</desc>
        <link href="http://sv.wikipedia.org/wiki/Järntorget,_Stockholm">
            <text>Järntorget, Stockholm</text>
            <type>Wikipedia</type>
        </link>
    </wpt>
    <wpt lat="59.32261667" lon="18.07404444">
        <name>Södra Bankohuset</name>
        <cmt>Byggnader avbildade i Suecian. Historiska offentliga byggnader i Sverige. Skeppsbron. Historiska
            bankbyggnader i Sverige. Byggnader i Gamla stan.
        </cmt>
        <desc>Södra Bankohuset</desc>
        <link href="http://sv.wikipedia.org/wiki/Södra_Bankohuset">
            <text>Södra Bankohuset</text>
            <type>Wikipedia</type>
        </link>
    </wpt>
    <wpt lat="59.32972222" lon="18.07694444">
        <name>Blasieholmen</name>
        <cmt>Blasieholmen.</cmt>
        <desc>Blasieholmen</desc>
        <link href="http://sv.wikipedia.org/wiki/Blasieholmen">
            <text>Blasieholmen</text>
            <type>Wikipedia</type>
        </link>
    </wpt>
    <wpt lat="59.32286944" lon="18.07415556">
        <name>Norra Bankohuset</name>
        <cmt>Byggnader i Gamla stan. Skeppsbron. Historiska bankbyggnader i Sverige. Historiska offentliga byggnader i
            Sverige.
        </cmt>
        <desc>Norra Bankohuset</desc>
        <link href="http://sv.wikipedia.org/wiki/Norra_Bankohuset">
            <text>Norra Bankohuset</text>
            <type>Wikipedia</type>
        </link>
    </wpt>
    <wpt lat="59.3241806" lon="18.1020031">
        <name>Skansenberget</name>
        <cmt>Skansen. Djurgården.</cmt>
        <desc>Skansenberget</desc>
        <link href="http://sv.wikipedia.org/wiki/Skansenberget">
            <text>Skansenberget</text>
            <type>Wikipedia</type>
        </link>
    </wpt>
    <wpt lat="59.32333333" lon="18.07041667">
        <name>Lejonstedts gränd</name>
        <cmt>Gator och torg i Gamla stan.</cmt>
        <desc>Lejonstedts gränd</desc>
        <link href="http://sv.wikipedia.org/wiki/Lejonstedts_gränd">
            <text>Lejonstedts gränd</text>
            <type>Wikipedia</type>
        </link>
    </wpt>
    <wpt lat="59.32472222" lon="18.10055556">
        <name>Alhambra, Stockholm</name>
        <cmt>Byggnader ritade av Johan Erik Söderlund. Arkitekturåret 1870. Teaterinstitutioner och teatergrupper.
            Teatrar i Stockholm. Djurgården.
        </cmt>
        <desc>Alhambra, Stockholm</desc>
        <link href="http://sv.wikipedia.org/wiki/Alhambra,_Stockholm">
            <text>Alhambra, Stockholm</text>
            <type>Wikipedia</type>
        </link>
    </wpt>
    <wpt lat="59.32666667" lon="18.14333333">
        <name>Isbladskärret</name>
        <cmt>Våtmarker i Sverige. Djurgården. Före detta vikar i Sverige.</cmt>
        <desc>Isbladskärret</desc>
        <link href="http://sv.wikipedia.org/wiki/Isbladskärret">
            <text>Isbladskärret</text>
            <type>Wikipedia</type>
        </link>
    </wpt>
    <wpt lat="59.33065556" lon="18.09439167">
        <name>Blå porten</name>
        <cmt>Djurgården.</cmt>
        <desc>Blå porten</desc>
        <link href="http://sv.wikipedia.org/wiki/Blå_porten">
            <text>Blå porten</text>
            <type>Wikipedia</type>
        </link>
    </wpt>
    <wpt lat="59.32111111" lon="18.10083333">
        <name>Beckholmen</name>
        <cmt>Öar i Stockholms kommun. Sjöfart i Stockholm. Djurgården.</cmt>
        <desc>Beckholmen</desc>
        <link href="http://sv.wikipedia.org/wiki/Beckholmen">
            <text>Beckholmen</text>
            <type>Wikipedia</type>
        </link>
    </wpt>
    <wpt lat="59.33333333" lon="18.10055556">
        <name>Berwaldhallen</name>
        <cmt>Arkitekturåret 1979. Byggnader på Östermalm. Konsertscener i Stockholm. Konserthus i Sverige.</cmt>
        <desc>Berwaldhallen</desc>
        <link href="http://sv.wikipedia.org/wiki/Berwaldhallen">
            <text>Berwaldhallen</text>
            <type>Wikipedia</type>
        </link>
    </wpt>
    <wpt lat="59.32305556" lon="18.09916667">
        <name>Djurgårdsstaden</name>
        <cmt>Djurgården. Byggnader på Djurgården. Gröna Lund.</cmt>
        <desc>Djurgårdsstaden</desc>
        <link href="http://sv.wikipedia.org/wiki/Djurgårdsstaden">
            <text>Djurgårdsstaden</text>
            <type>Wikipedia</type>
        </link>
    </wpt>
    <wpt lat="59.32305556" lon="18.09611111">
        <name>Gröna Lund</name>
        <cmt>Gröna Lund. Nöjesparker i Sverige.</cmt>
        <desc>Gröna Lund</desc>
        <link href="http://sv.wikipedia.org/wiki/Gröna_Lund">
            <text>Gröna Lund</text>
            <type>Wikipedia</type>
        </link>
    </wpt>
    <wpt lat="59.32944444" lon="18.08888889">
        <name>Junibacken</name>
        <cmt>Scenkonst för barn och unga. Institutioner för barnkultur. Kultur och konst i Stockholm. Astrid Lindgren.
            Djurgården.
        </cmt>
        <desc>Junibacken</desc>
        <link href="http://sv.wikipedia.org/wiki/Junibacken">
            <text>Junibacken</text>
            <type>Wikipedia</type>
        </link>
    </wpt>
    <wpt lat="59.33138889" lon="18.07266667">
        <name>Wahrendorffsgatan</name>
        <cmt>Gator och torg på Norrmalm.</cmt>
        <desc>Wahrendorffsgatan</desc>
        <link href="http://sv.wikipedia.org/wiki/Wahrendorffsgatan">
            <text>Wahrendorffsgatan</text>
            <type>Wikipedia</type>
        </link>
    </wpt>
    <wpt lat="59.32630556" lon="18.08083333">
        <name>Svensksundsvägen</name>
        <cmt>Gator och torg på Skeppsholmen.</cmt>
        <desc>Svensksundsvägen</desc>
        <link href="http://sv.wikipedia.org/wiki/Svensksundsvägen">
            <text>Svensksundsvägen</text>
            <type>Wikipedia</type>
        </link>
    </wpt>
    <wpt lat="59.33222198" lon="18.08638954">
        <name>Grotta Azurra</name>
        <cmt>Nedlagda nattklubbar i Stockholm.</cmt>
        <desc>Grotta Azurra</desc>
        <link href="http://sv.wikipedia.org/wiki/Grotta_Azurra">
            <text>Grotta Azurra</text>
            <type>Wikipedia</type>
        </link>
    </wpt>
    <wpt lat="59.33222198" lon="18.08749962">
        <name>Terra Nova (skeppsvarv)</name>
        <cmt>Nedlagda svenska skeppsvarv.</cmt>
        <desc>Terra Nova (skeppsvarv)</desc>
        <link href="http://sv.wikipedia.org/wiki/Terra_Nova_(skeppsvarv)">
            <text>Terra Nova (skeppsvarv)</text>
            <type>Wikipedia</type>
        </link>
    </wpt>
    <wpt lat="59.32384444" lon="18.07443056">
        <name>Kvarteret Glaucus</name>
        <cmt>Kvarter i Gamla stan.</cmt>
        <desc>Kvarteret Glaucus</desc>
        <link href="http://sv.wikipedia.org/wiki/Kvarteret_Glaucus">
            <text>Kvarteret Glaucus</text>
            <type>Wikipedia</type>
        </link>
    </wpt>
    <wpt lat="59.32222222" lon="18.14861111">
        <name>Thielska galleriet</name>
        <cmt>Byggnader på Djurgården. Privata konsthallar i Sverige. Konstmuseer och konsthallar i Stockholm. Ferdinand
            Boberg. Djurgården.
        </cmt>
        <desc>Thielska galleriet</desc>
        <link href="http://sv.wikipedia.org/wiki/Thielska_galleriet">
            <text>Thielska galleriet</text>
            <type>Wikipedia</type>
        </link>
    </wpt>
    <wpt lat="59.32552778" lon="18.08630556">
        <name>Slupskjulsvägen</name>
        <cmt>Gator och torg på Skeppsholmen.</cmt>
        <desc>Slupskjulsvägen</desc>
        <link href="http://sv.wikipedia.org/wiki/Slupskjulsvägen">
            <text>Slupskjulsvägen</text>
            <type>Wikipedia</type>
        </link>
    </wpt>
    <wpt lat="59.3290329" lon="18.07738113">
        <name>Sillhovet</name>
        <cmt>Kvarter i Stockholm. Blasieholmen. Stockholms historia.</cmt>
        <desc>Sillhovet</desc>
        <link href="http://sv.wikipedia.org/wiki/Sillhovet">
            <text>Sillhovet</text>
            <type>Wikipedia</type>
        </link>
    </wpt>
    <wpt lat="59.32640839" lon="18.07112503">
        <name>Gästvåningen</name>
        <cmt>Stockholms slott.</cmt>
        <desc>Gästvåningen</desc>
        <link href="http://sv.wikipedia.org/wiki/Gästvåningen">
            <text>Gästvåningen</text>
            <type>Wikipedia</type>
        </link>
    </wpt>
    <wpt lat="59.32720278" lon="18.07118056">
        <name>Bernadottevåningen</name>
        <cmt>Stockholms slott.</cmt>
        <desc>Bernadottevåningen</desc>
        <link href="http://sv.wikipedia.org/wiki/Bernadottevåningen">
            <text>Bernadottevåningen</text>
            <type>Wikipedia</type>
        </link>
    </wpt>
    <wpt lat="59.32586111" lon="18.09616667">
        <name>Bågskytten (skulptur)</name>
        <cmt>Skulpturer i Stockholm. Skulpturer av Carl Milles.</cmt>
        <desc>Bågskytten (skulptur)</desc>
        <link href="http://sv.wikipedia.org/wiki/Bågskytten_(skulptur)">
            <text>Bågskytten (skulptur)</text>
            <type>Wikipedia</type>
        </link>
    </wpt>
    <wpt lat="59.32944444" lon="18.07888889">
        <name>Nobelcenter</name>
        <cmt>Nobelpriset. Pågående byggprojekt i Stockholm. Planerade byggprojekt. Blasieholmen.</cmt>
        <desc>Nobelcenter</desc>
        <link href="http://sv.wikipedia.org/wiki/Nobelcenter">
            <text>Nobelcenter</text>
            <type>Wikipedia</type>
        </link>
    </wpt>
    <wpt lat="59.32561111" lon="18.07116699">
        <name>Källargränd</name>
        <cmt>Gator och torg i Gamla stan.</cmt>
        <desc>Källargränd</desc>
        <link href="http://sv.wikipedia.org/wiki/Källargränd">
            <text>Källargränd</text>
            <type>Wikipedia</type>
        </link>
    </wpt>
    <wpt lat="59.32694444" lon="18.07166667">
        <name>Stockholms slott</name>
        <cmt>Stockholms slott. Svenska kungliga slott. Slott i Uppland. Fontäner i Stockholm.</cmt>
        <desc>Stockholms slott</desc>
        <link href="http://sv.wikipedia.org/wiki/Stockholms_slott">
            <text>Stockholms slott</text>
            <type>Wikipedia</type>
        </link>
    </wpt>
    <wpt lat="59.32419" lon="18.0978">
        <name>Bellmanshuset, Djurgården</name>
        <cmt>Byggnader på Djurgården. Byggnadsminnen i Stockholms kommun. Bellman. Gröna Lund.</cmt>
        <desc>Bellmanshuset, Djurgården</desc>
        <link href="http://sv.wikipedia.org/wiki/Bellmanshuset,_Djurgården">
            <text>Bellmanshuset, Djurgården</text>
            <type>Wikipedia</type>
        </link>
    </wpt>
    <wpt lat="59.32416667" lon="18.10138889">
        <name>Kalle och Emma</name>
        <cmt>Skulpturer i Stockholm. Djurgården.</cmt>
        <desc>Kalle och Emma</desc>
        <link href="http://sv.wikipedia.org/wiki/Kalle_och_Emma">
            <text>Kalle och Emma</text>
            <type>Wikipedia</type>
        </link>
    </wpt>
    <wpt lat="59.32318333" lon="18.07432778">
        <name>Kvarteret Argus</name>
        <cmt>Kvarter i Gamla stan. Stockholms historia. Byggnader i Gamla stan.</cmt>
        <desc>Kvarteret Argus</desc>
        <link href="http://sv.wikipedia.org/wiki/Kvarteret_Argus">
            <text>Kvarteret Argus</text>
            <type>Wikipedia</type>
        </link>
    </wpt>
    <wpt lat="59.32401" lon="18.09698">
        <name>Mjölnargården</name>
        <cmt>Byggnadsminnen i Stockholms kommun. Gröna Lund. Byggnader på Djurgården.</cmt>
        <desc>Mjölnargården</desc>
        <link href="http://sv.wikipedia.org/wiki/Mjölnargården">
            <text>Mjölnargården</text>
            <type>Wikipedia</type>
        </link>
    </wpt>
    <wpt lat="59.32406" lon="18.09792">
        <name>Låga längan</name>
        <cmt>Byggnader på Djurgården. Byggnadsminnen i Stockholms kommun. Gröna Lund.</cmt>
        <desc>Låga längan</desc>
        <link href="http://sv.wikipedia.org/wiki/Låga_längan">
            <text>Låga längan</text>
            <type>Wikipedia</type>
        </link>
    </wpt>
    <wpt lat="59.31472222" lon="18.10944444">
        <name>Saltsjökvarn</name>
        <cmt>Sicklaön. Företag i Nacka kommun. Kvarnar i Stockholms län. Företag upplösta 1989. Sveriges
            industrihistoria. Ej längre existerande svenska kvarnar. Företag bildade 1861.
        </cmt>
        <desc>Saltsjökvarn</desc>
        <link href="http://sv.wikipedia.org/wiki/Saltsjökvarn">
            <text>Saltsjökvarn</text>
            <type>Wikipedia</type>
        </link>
    </wpt>
    <wpt lat="59.3235" lon="18.07297778">
        <name>Storkyrkobadet</name>
        <cmt>Sportanläggningar i Stockholms län. Gamla stan. Badhus i Stockholm.</cmt>
        <desc>Storkyrkobadet</desc>
        <link href="http://sv.wikipedia.org/wiki/Storkyrkobadet">
            <text>Storkyrkobadet</text>
            <type>Wikipedia</type>
        </link>
    </wpt>
    <wpt lat="59.33011944" lon="18.07339444">
        <name>Davidsonska huset, Kungsträdgårdsgatan 2B</name>
        <cmt>Ej längre existerande byggnader på Norrmalm. Kungsträdgårdsgatan.</cmt>
        <desc>Davidsonska huset, Kungsträdgårdsgatan 2B</desc>
        <link href="http://sv.wikipedia.org/wiki/Davidsonska_huset,_Kungsträdgårdsgatan_2B">
            <text>Davidsonska huset, Kungsträdgårdsgatan 2B</text>
            <type>Wikipedia</type>
        </link>
    </wpt>
    <wpt lat="59.32880278" lon="18.07751944">
        <name>Holmkvarnen</name>
        <cmt>Byggnader på Blasieholmen. Ej längre existerande byggnader på Norrmalm. Kvarnar i Stockholms län.</cmt>
        <desc>Holmkvarnen</desc>
        <link href="http://sv.wikipedia.org/wiki/Holmkvarnen">
            <text>Holmkvarnen</text>
            <type>Wikipedia</type>
        </link>
    </wpt>
    <wpt lat="59.32268906" lon="18.1362915">
        <name>Nedre Manilla</name>
        <cmt>Byggnader ritade av Ragnar Östberg. Byggnadsminnen i Stockholms kommun. Villor på Djurgården. Byggnader med
            anknytning till Bonnierfamiljen.
        </cmt>
        <desc>Nedre Manilla</desc>
        <link href="http://sv.wikipedia.org/wiki/Nedre_Manilla">
            <text>Nedre Manilla</text>
            <type>Wikipedia</type>
        </link>
    </wpt>
    <wpt lat="59.33138889" lon="18.07111111">
        <name>Karl XIII:s staty</name>
        <cmt>Norrmalm. Skulpturer i Stockholm.</cmt>
        <desc>Karl XIII:s staty</desc>
        <link href="http://sv.wikipedia.org/wiki/Karl_XIII:s_staty">
            <text>Karl XIII:s staty</text>
            <type>Wikipedia</type>
        </link>
    </wpt>
    <wpt lat="59.32566667" lon="18.08419444">
        <name>Skulpturparken vid Moderna museet</name>
        <cmt>Skulpturparker i Sverige. Skeppsholmen.</cmt>
        <desc>Skulpturparken vid Moderna museet</desc>
        <link href="http://sv.wikipedia.org/wiki/Skulpturparken_vid_Moderna_museet">
            <text>Skulpturparken vid Moderna museet</text>
            <type>Wikipedia</type>
        </link>
    </wpt>
    <wpt lat="59.32538889" lon="18.07241667">
        <name>Trädgårdsgatan</name>
        <cmt>Gator och torg i Gamla stan.</cmt>
        <desc>Trädgårdsgatan</desc>
        <link href="http://sv.wikipedia.org/wiki/Trädgårdsgatan">
            <text>Trädgårdsgatan</text>
            <type>Wikipedia</type>
        </link>
    </wpt>
    <wpt lat="59.32247222" lon="18.07411111">
        <name>Södra Bankogränd</name>
        <cmt>Gator och torg i Gamla stan.</cmt>
        <desc>Södra Bankogränd</desc>
        <link href="http://sv.wikipedia.org/wiki/Södra_Bankogränd">
            <text>Södra Bankogränd</text>
            <type>Wikipedia</type>
        </link>
    </wpt>
    <wpt lat="59.32575" lon="18.10475556">
        <name>Skogaholms herrgård</name>
        <cmt>Herrgårdar i Närke. Skansen. Herrgårdar i Uppland. Sverige under 1690-talet.</cmt>
        <desc>Skogaholms herrgård</desc>
        <link href="http://sv.wikipedia.org/wiki/Skogaholms_herrgård">
            <text>Skogaholms herrgård</text>
            <type>Wikipedia</type>
        </link>
    </wpt>
    <wpt lat="59.33322222" lon="18.08294444">
        <name>Nya lärarinneseminariet</name>
        <cmt>Utbildningsinstitutioner bildade 1896. Utbildningsinstitutioner upplösta 1912. Ej längre existerande
            utbildning i Stockholm.
        </cmt>
        <desc>Nya lärarinneseminariet</desc>
        <link href="http://sv.wikipedia.org/wiki/Nya_lärarinneseminariet">
            <text>Nya lärarinneseminariet</text>
            <type>Wikipedia</type>
        </link>
    </wpt>
    <wpt lat="59.33277778" lon="18.07722222">
        <name>Feiths konditori</name>
        <cmt>Nöjeslokaler i Stockholm. Platser i Evert Taubes visor. Nedlagda kaféer i Sverige.</cmt>
        <desc>Feiths konditori</desc>
        <link href="http://sv.wikipedia.org/wiki/Feiths_konditori">
            <text>Feiths konditori</text>
            <type>Wikipedia</type>
        </link>
    </wpt>
    <wpt lat="59.32525" lon="18.07211111">
        <name>Trädgårdstvärgränd</name>
        <cmt>Gator och torg i Gamla stan.</cmt>
        <desc>Trädgårdstvärgränd</desc>
        <link href="http://sv.wikipedia.org/wiki/Trädgårdstvärgränd">
            <text>Trädgårdstvärgränd</text>
            <type>Wikipedia</type>
        </link>
    </wpt>
    <wpt lat="59.33438889" lon="18.07991667">
        <name>Artillerigårdens skyddsrum</name>
        <cmt>Östermalm. Skyddsrum i Stockholm.</cmt>
        <desc>Artillerigårdens skyddsrum</desc>
        <link href="http://sv.wikipedia.org/wiki/Artillerigårdens_skyddsrum">
            <text>Artillerigårdens skyddsrum</text>
            <type>Wikipedia</type>
        </link>
    </wpt>
    <wpt lat="59.33084722" lon="18.06983889">
        <name>Stockholms handelskammare</name>
        <cmt>Stockholms län. Näringslivets intresseorganisationer i Sverige. Uppsala län.</cmt>
        <desc>Stockholms handelskammare</desc>
        <link href="http://sv.wikipedia.org/wiki/Stockholms_handelskammare">
            <text>Stockholms handelskammare</text>
            <type>Wikipedia</type>
        </link>
    </wpt>
    <wpt lat="59.33305556" lon="18.07388889">
        <name>Linderoths kalenderur</name>
        <cmt>Ur. Norrmalm. Stockholms historia.</cmt>
        <desc>Linderoths kalenderur</desc>
        <link href="http://sv.wikipedia.org/wiki/Linderoths_kalenderur">
            <text>Linderoths kalenderur</text>
            <type>Wikipedia</type>
        </link>
    </wpt>
    <wpt lat="59.33305556" lon="18.07694444">
        <name>Dramaten</name>
        <cmt>Teaterbyggnader i Sverige. Östermalm. Svenska företag med statligt ägande. Teaterinstitutioner och
            teatergrupper. Teatrar i Stockholm. Organisationer bildade 1788. Teatrar i Sverige.
        </cmt>
        <desc>Dramaten</desc>
        <link href="http://sv.wikipedia.org/wiki/Dramaten">
            <text>Dramaten</text>
            <type>Wikipedia</type>
        </link>
    </wpt>
    <wpt lat="59.31493611" lon="18.11696944">
        <name>Danvikshems kyrka</name>
        <cmt>Religiösa byggnader invigda 1915. Kyrkobyggnader i Nacka kommun. Byggnader i Nacka kommun. Kyrkobyggnader i
            Stockholms stift.
        </cmt>
        <desc>Danvikshems kyrka</desc>
        <link href="http://sv.wikipedia.org/wiki/Danvikshems_kyrka">
            <text>Danvikshems kyrka</text>
            <type>Wikipedia</type>
        </link>
    </wpt>
    <wpt lat="59.32502778" lon="18.07305556">
        <name>Själagårdsgatan</name>
        <cmt>Gator och torg i Gamla stan.</cmt>
        <desc>Själagårdsgatan</desc>
        <link href="http://sv.wikipedia.org/wiki/Själagårdsgatan">
            <text>Själagårdsgatan</text>
            <type>Wikipedia</type>
        </link>
    </wpt>
    <wpt lat="59.32393333" lon="18.07436111">
        <name>Glaucus 5</name>
        <cmt>Byggnadsminnen i Stockholms kommun. Byggnader i Gamla stan.</cmt>
        <desc>Glaucus 5</desc>
        <link href="http://sv.wikipedia.org/wiki/Glaucus_5">
            <text>Glaucus 5</text>
            <type>Wikipedia</type>
        </link>
    </wpt>
    <wpt lat="59.32636111" lon="18.07122222">
        <name>Ordenssalarna</name>
        <cmt>Stockholms slott. Kungl. Maj:ts orden.</cmt>
        <desc>Ordenssalarna</desc>
        <link href="http://sv.wikipedia.org/wiki/Ordenssalarna">
            <text>Ordenssalarna</text>
            <type>Wikipedia</type>
        </link>
    </wpt>
    <wpt lat="59.325775" lon="18.10044444">
        <name>Bageriet, Skansen</name>
        <cmt>Skansen.</cmt>
        <desc>Bageriet, Skansen</desc>
        <link href="http://sv.wikipedia.org/wiki/Bageriet,_Skansen">
            <text>Bageriet, Skansen</text>
            <type>Wikipedia</type>
        </link>
    </wpt>
    <wpt lat="59.33475278" lon="18.07605">
        <name>Högre lärarinneseminariet</name>
        <cmt>Ej längre existerande skolor i Stockholm. Byggnader på Östermalm. SBL. Utbildningsinstitutioner bildade
            1861. Utbildningsinstitutioner upplösta 1943. Stockholms historia.
        </cmt>
        <desc>Högre lärarinneseminariet</desc>
        <link href="http://sv.wikipedia.org/wiki/Högre_lärarinneseminariet">
            <text>Högre lärarinneseminariet</text>
            <type>Wikipedia</type>
        </link>
    </wpt>
    <wpt lat="59.32483333" lon="18.07297222">
        <name>Brända tomten</name>
        <cmt>Bränder 1728. Gator och torg i Gamla stan.</cmt>
        <desc>Brända tomten</desc>
        <link href="http://sv.wikipedia.org/wiki/Brända_tomten">
            <text>Brända tomten</text>
            <type>Wikipedia</type>
        </link>
    </wpt>
    <wpt lat="59.33083344" lon="18.07444382">
        <name>Sällskapet (herrklubb)</name>
        <cmt>Blasieholmen. Mansorganisationer. Byggnader ritade av Johan Fredrik Åbom. Organisationer bildade 1800.
            Organisationer i Sverige. Prins Carl Philips beskydd.
        </cmt>
        <desc>Sällskapet (herrklubb)</desc>
        <link href="http://sv.wikipedia.org/wiki/Sällskapet_(herrklubb)">
            <text>Sällskapet (herrklubb)</text>
            <type>Wikipedia</type>
        </link>
    </wpt>
    <wpt lat="59.32255" lon="18.07193">
        <name>Södermanlands runinskrifter 274</name>
        <cmt>Södermanlands runinskrifter. Runinskrifter i Stockholms kommun.</cmt>
        <desc>Södermanlands runinskrifter 274</desc>
        <link href="http://sv.wikipedia.org/wiki/Södermanlands_runinskrifter_274">
            <text>Södermanlands runinskrifter 274</text>
            <type>Wikipedia</type>
        </link>
    </wpt>
    <wpt lat="59.32583333" lon="18.07138889">
        <name>Tre Kronor (byggnad)</name>
        <cmt>Ej längre existerande torn i Sverige. Förstörda byggnadsverk. Gamla stans historia. Ej längre existerande
            borgar och slott i Sverige. Ej längre existerande byggnader i Gamla stan. Byggnader avbildade i Suecian.
            Stockholms historia.
        </cmt>
        <desc>Tre Kronor (byggnad)</desc>
        <link href="http://sv.wikipedia.org/wiki/Tre_Kronor_(byggnad)">
            <text>Tre Kronor (byggnad)</text>
            <type>Wikipedia</type>
        </link>
    </wpt>
    <wpt lat="59.32430649" lon="18.10666656">
        <name>Djurgårdsstationen</name>
        <cmt>Elektricitet. Byggnader på Djurgården. Ferdinand Boberg. Tekniska försörjningssystem i Stockholm.</cmt>
        <desc>Djurgårdsstationen</desc>
        <link href="http://sv.wikipedia.org/wiki/Djurgårdsstationen">
            <text>Djurgårdsstationen</text>
            <type>Wikipedia</type>
        </link>
    </wpt>
    <wpt lat="59.32833333" lon="18.06986111">
        <name>Norrbro</name>
        <cmt>Norrmalm. Broar invigda 1807. Gamla stan. Broar i Stockholm.</cmt>
        <desc>Norrbro</desc>
        <link href="http://sv.wikipedia.org/wiki/Norrbro">
            <text>Norrbro</text>
            <type>Wikipedia</type>
        </link>
    </wpt>
    <wpt lat="59.32919444" lon="18.10188889">
        <name>Framnäs udde</name>
        <cmt>Djurgården.</cmt>
        <desc>Framnäs udde</desc>
        <link href="http://sv.wikipedia.org/wiki/Framnäs_udde">
            <text>Framnäs udde</text>
            <type>Wikipedia</type>
        </link>
    </wpt>
    <wpt lat="59.32638931" lon="18.08222198">
        <name>Skeppsholmskvarnen</name>
        <cmt>Skeppsholmen. Kvarnar i Stockholms län.</cmt>
        <desc>Skeppsholmskvarnen</desc>
        <link href="http://sv.wikipedia.org/wiki/Skeppsholmskvarnen">
            <text>Skeppsholmskvarnen</text>
            <type>Wikipedia</type>
        </link>
    </wpt>
    <wpt lat="59.31555557" lon="18.14666748">
        <name>Svindersviksbron</name>
        <cmt>Broar i Sverige. Planerade byggprojekt. Byggnader i Nacka kommun.</cmt>
        <desc>Svindersviksbron</desc>
        <link href="http://sv.wikipedia.org/wiki/Svindersviksbron">
            <text>Svindersviksbron</text>
            <type>Wikipedia</type>
        </link>
    </wpt>
    <wpt lat="59.325025" lon="18.07134444">
        <name>Grillska huset</name>
        <cmt>Grill. Byggnader i Gamla stan.</cmt>
        <desc>Grillska huset</desc>
        <link href="http://sv.wikipedia.org/wiki/Grillska_huset">
            <text>Grillska huset</text>
            <type>Wikipedia</type>
        </link>
    </wpt>
    <wpt lat="59.32591111" lon="18.07337778">
        <name>Numismatiska biblioteket</name>
        <cmt>Bibliotek i Stockholm. Riksantikvarieämbetet. Numismatik.</cmt>
        <desc>Numismatiska biblioteket</desc>
        <link href="http://sv.wikipedia.org/wiki/Numismatiska_biblioteket">
            <text>Numismatiska biblioteket</text>
            <type>Wikipedia</type>
        </link>
    </wpt>
    <wpt lat="59.32235278" lon="18.07413611">
        <name>Zum Franziskaner</name>
        <cmt>Historiska verksamheter i Gamla stan. Företag bildade 1421. Skeppsbron. Restauranger i Stockholm.
            Verksamheter i Gamla stan.
        </cmt>
        <desc>Zum Franziskaner</desc>
        <link href="http://sv.wikipedia.org/wiki/Zum_Franziskaner">
            <text>Zum Franziskaner</text>
            <type>Wikipedia</type>
        </link>
    </wpt>
    <wpt lat="59.32376389" lon="18.07204167">
        <name>Tyska S:ta Gertruds församling</name>
        <cmt>Församlingar i Stockholms kommun. Verksamheter i Gamla stan.</cmt>
        <desc>Tyska S:ta Gertruds församling</desc>
        <link href="http://sv.wikipedia.org/wiki/Tyska_S:ta_Gertruds_församling">
            <text>Tyska S:ta Gertruds församling</text>
            <type>Wikipedia</type>
        </link>
    </wpt>
    <wpt lat="59.32288889" lon="18.07266667">
        <name>Mårten Trotzigs gränd</name>
        <cmt>Gator och torg i Gamla stan.</cmt>
        <desc>Mårten Trotzigs gränd</desc>
        <link href="http://sv.wikipedia.org/wiki/Mårten_Trotzigs_gränd">
            <text>Mårten Trotzigs gränd</text>
            <type>Wikipedia</type>
        </link>
    </wpt>
    <wpt lat="59.32349014" lon="18.09737968">
        <name>Apotekshuset, Djurgården</name>
        <cmt>Gröna Lund. Byggnader på Djurgården.</cmt>
        <desc>Apotekshuset, Djurgården</desc>
        <link href="http://sv.wikipedia.org/wiki/Apotekshuset,_Djurgården">
            <text>Apotekshuset, Djurgården</text>
            <type>Wikipedia</type>
        </link>
    </wpt>
    <wpt lat="59.3325" lon="18.07361111">
        <name>Chinateatern</name>
        <cmt>Nöjeslokaler i Stockholm. Teatrar i Stockholm. Byggnader på Norrmalm. Nedlagda biografer i Stockholm.</cmt>
        <desc>Chinateatern</desc>
        <link href="http://sv.wikipedia.org/wiki/Chinateatern">
            <text>Chinateatern</text>
            <type>Wikipedia</type>
        </link>
    </wpt>
    <wpt lat="59.32777778" lon="18.09722222">
        <name>Karl XV:s staty</name>
        <cmt>Ryttarstatyer i Sverige. Djurgården.</cmt>
        <desc>Karl XV:s staty</desc>
        <link href="http://sv.wikipedia.org/wiki/Karl_XV:s_staty">
            <text>Karl XV:s staty</text>
            <type>Wikipedia</type>
        </link>
    </wpt>
    <wpt lat="59.32415" lon="18.09674">
        <name>Järnvågshuset</name>
        <cmt>Gröna Lund. Byggnader på Djurgården.</cmt>
        <desc>Järnvågshuset</desc>
        <link href="http://sv.wikipedia.org/wiki/Järnvågshuset">
            <text>Järnvågshuset</text>
            <type>Wikipedia</type>
        </link>
    </wpt>
    <wpt lat="59.32713056" lon="18.06863056">
        <name>Stallkanalen</name>
        <cmt>Vattendrag i Sverige. Gamla stan.</cmt>
        <desc>Stallkanalen</desc>
        <link href="http://sv.wikipedia.org/wiki/Stallkanalen">
            <text>Stallkanalen</text>
            <type>Wikipedia</type>
        </link>
    </wpt>
    <wpt lat="59.32963943" lon="18.07186127">
        <name>Jussi Björlings allé</name>
        <cmt>Gator och torg på Norrmalm.</cmt>
        <desc>Jussi Björlings allé</desc>
        <link href="http://sv.wikipedia.org/wiki/Jussi_Björlings_allé">
            <text>Jussi Björlings allé</text>
            <type>Wikipedia</type>
        </link>
    </wpt>
    <wpt lat="59.33333333" lon="18.07277778">
        <name>Norrmalmstorg</name>
        <cmt>Gator och torg på Norrmalm. Stockholms historia.</cmt>
        <desc>Norrmalmstorg</desc>
        <link href="http://sv.wikipedia.org/wiki/Norrmalmstorg">
            <text>Norrmalmstorg</text>
            <type>Wikipedia</type>
        </link>
    </wpt>
    <wpt lat="59.32513889" lon="18.07472222">
        <name>Fiskartorget</name>
        <cmt>Historiska verksamheter i Gamla stan. Gator och torg i Gamla stan.</cmt>
        <desc>Fiskartorget</desc>
        <link href="http://sv.wikipedia.org/wiki/Fiskartorget">
            <text>Fiskartorget</text>
            <type>Wikipedia</type>
        </link>
    </wpt>
    <wpt lat="59.328" lon="18.06952778">
        <name>Riksplan</name>
        <cmt>Gator och torg i Gamla stan.</cmt>
        <desc>Riksplan</desc>
        <link href="http://sv.wikipedia.org/wiki/Riksplan">
            <text>Riksplan</text>
            <type>Wikipedia</type>
        </link>
    </wpt>
    <wpt lat="59.32486111" lon="18.07113889">
        <name>Svartmangatan</name>
        <cmt>Gator och torg i Gamla stan.</cmt>
        <desc>Svartmangatan</desc>
        <link href="http://sv.wikipedia.org/wiki/Svartmangatan">
            <text>Svartmangatan</text>
            <type>Wikipedia</type>
        </link>
    </wpt>
    <wpt lat="59.32316667" lon="18.07186111">
        <name>Torgdragargränd</name>
        <cmt>Gator och torg i Gamla stan.</cmt>
        <desc>Torgdragargränd</desc>
        <link href="http://sv.wikipedia.org/wiki/Torgdragargränd">
            <text>Torgdragargränd</text>
            <type>Wikipedia</type>
        </link>
    </wpt>
    <wpt lat="59.32583333" lon="18.085">
        <name>Arkitektur- och designcentrum</name>
        <cmt>Myndigheter i Stockholm. Teknikmuseer i Sverige. Myndigheter under Kulturdepartementet. Kasper
            Salin-priset. Konstmuseer och konsthallar i Stockholm. Centralmuseer i Sverige. Designmuseer.
            Arkitekturmuseer. Statliga konstmuseer och konsthallar i Sverige.
        </cmt>
        <desc>Arkitektur- och designcentrum</desc>
        <link href="http://sv.wikipedia.org/wiki/Arkitektur-_och_designcentrum">
            <text>Arkitektur- och designcentrum</text>
            <type>Wikipedia</type>
        </link>
    </wpt>
    <wpt lat="59.3241806" lon="18.1020031">
        <name>Skansen</name>
        <cmt>Centralmuseer i Sverige. Skansen.</cmt>
        <desc>Skansen</desc>
        <link href="http://sv.wikipedia.org/wiki/Skansen">
            <text>Skansen</text>
            <type>Wikipedia</type>
        </link>
    </wpt>
    <wpt lat="59.33313889" lon="18.07566667">
        <name>Birger Jarlsgatan</name>
        <cmt>Gator och torg på Norrmalm. Birger jarl. Gator och torg på Östermalm. Gator och torg i Vasastan.</cmt>
        <desc>Birger Jarlsgatan</desc>
        <link href="http://sv.wikipedia.org/wiki/Birger_Jarlsgatan">
            <text>Birger Jarlsgatan</text>
            <type>Wikipedia</type>
        </link>
    </wpt>
    <wpt lat="59.32084722" lon="18.15268611">
        <name>Stora Sjötullen (Blockhusudden)</name>
        <cmt>Historiska tullar i Stockholm. Byggnader på Djurgården.</cmt>
        <desc>Stora Sjötullen (Blockhusudden)</desc>
        <link href="http://sv.wikipedia.org/wiki/Stora_Sjötullen_(Blockhusudden)">
            <text>Stora Sjötullen (Blockhusudden)</text>
            <type>Wikipedia</type>
        </link>
    </wpt>
    <wpt lat="59.32555556" lon="18.07222222">
        <name>Järnpojke</name>
        <cmt>Skulpturer av Liss Eriksson. Skulpturer i Gamla stan.</cmt>
        <desc>Järnpojke</desc>
        <link href="http://sv.wikipedia.org/wiki/Järnpojke">
            <text>Järnpojke</text>
            <type>Wikipedia</type>
        </link>
    </wpt>
    <wpt lat="59.33300018" lon="18.08416748">
        <name>JP Larsson</name>
        <cmt>Östermalm. Företag bildade 1914. Svenska familjeföretag. Företag i Stockholms kommun.</cmt>
        <desc>JP Larsson</desc>
        <link href="http://sv.wikipedia.org/wiki/JP_Larsson">
            <text>JP Larsson</text>
            <type>Wikipedia</type>
        </link>
    </wpt>
    <wpt lat="59.32166667" lon="18.08888889">
        <name>Underofficersbostället</name>
        <cmt>Kastellholmen.</cmt>
        <desc>Underofficersbostället</desc>
        <link href="http://sv.wikipedia.org/wiki/Underofficersbostället">
            <text>Underofficersbostället</text>
            <type>Wikipedia</type>
        </link>
    </wpt>
    <wpt lat="59.32722222" lon="18.08333333">
        <name>Moderna dansteatern</name>
        <cmt>Dans i Sverige. Teaterinstitutioner och teatergrupper. Teatrar i Stockholm. Skeppsholmen.</cmt>
        <desc>Moderna dansteatern</desc>
        <link href="http://sv.wikipedia.org/wiki/Moderna_dansteatern">
            <text>Moderna dansteatern</text>
            <type>Wikipedia</type>
        </link>
    </wpt>
    <wpt lat="59.32733333" lon="18.13344444">
        <name>Edelstams väg</name>
        <cmt>Gator och torg på Djurgården.</cmt>
        <desc>Edelstams väg</desc>
        <link href="http://sv.wikipedia.org/wiki/Edelstams_väg">
            <text>Edelstams väg</text>
            <type>Wikipedia</type>
        </link>
    </wpt>
    <wpt lat="59.32868056" lon="18.09755">
        <name>Villa Lusthusporten</name>
        <cmt>Byggnadsminnen i Stockholms kommun. Villor på Djurgården.</cmt>
        <desc>Villa Lusthusporten</desc>
        <link href="http://sv.wikipedia.org/wiki/Villa_Lusthusporten">
            <text>Villa Lusthusporten</text>
            <type>Wikipedia</type>
        </link>
    </wpt>
    <wpt lat="59.3275" lon="18.07055556">
        <name>Slottskajen</name>
        <cmt>Gator och torg i Gamla stan.</cmt>
        <desc>Slottskajen</desc>
        <link href="http://sv.wikipedia.org/wiki/Slottskajen">
            <text>Slottskajen</text>
            <type>Wikipedia</type>
        </link>
    </wpt>
    <wpt lat="59.31451416" lon="18.11199188">
        <name>Danviken</name>
        <cmt>Sicklaön. Nacka kommun.</cmt>
        <desc>Danviken</desc>
        <link href="http://sv.wikipedia.org/wiki/Danviken">
            <text>Danviken</text>
            <type>Wikipedia</type>
        </link>
    </wpt>
    <wpt lat="59.32944444" lon="18.13194444">
        <name>Djurgårdsbrunnsbron</name>
        <cmt>Broar invigda 1884. Djurgården. Broar i Stockholm.</cmt>
        <desc>Djurgårdsbrunnsbron</desc>
        <link href="http://sv.wikipedia.org/wiki/Djurgårdsbrunnsbron">
            <text>Djurgårdsbrunnsbron</text>
            <type>Wikipedia</type>
        </link>
    </wpt>
    <wpt lat="59.32372222" lon="18.07269444">
        <name>Ehrenstrahlska huset</name>
        <cmt>Svartmangatan. Byggnader i Gamla stan.</cmt>
        <desc>Ehrenstrahlska huset</desc>
        <link href="http://sv.wikipedia.org/wiki/Ehrenstrahlska_huset">
            <text>Ehrenstrahlska huset</text>
            <type>Wikipedia</type>
        </link>
    </wpt>
    <wpt lat="59.32463889" lon="18.09716667">
        <name>Allmänna gränd</name>
        <cmt>Gator och torg på Djurgården.</cmt>
        <desc>Allmänna gränd</desc>
        <link href="http://sv.wikipedia.org/wiki/Allmänna_gränd">
            <text>Allmänna gränd</text>
            <type>Wikipedia</type>
        </link>
    </wpt>
    <wpt lat="59.32527778" lon="18.09416667">
        <name>Aquaria vattenmuseum</name>
        <cmt>Museer i Stockholm. Museer invigda 1991. Djurgården. Akvarier.</cmt>
        <desc>Aquaria vattenmuseum</desc>
        <link href="http://sv.wikipedia.org/wiki/Aquaria_vattenmuseum">
            <text>Aquaria vattenmuseum</text>
            <type>Wikipedia</type>
        </link>
    </wpt>
    <wpt lat="59.33097222" lon="18.06972222">
        <name>Ecuadors ambassad i Stockholm</name>
        <cmt>Relationer mellan Ecuador och Sverige. Ambassader i Stockholm.</cmt>
        <desc>Ecuadors ambassad i Stockholm</desc>
        <link href="http://sv.wikipedia.org/wiki/Ecuadors_ambassad_i_Stockholm">
            <text>Ecuadors ambassad i Stockholm</text>
            <type>Wikipedia</type>
        </link>
    </wpt>
    <wpt lat="59.3275" lon="18.09916667">
        <name>Djurgårdsteatern</name>
        <cmt>Teatrar i Stockholm. Byggnader på Djurgården. Bränder i Stockholm. Teaterinstitutioner och teatergrupper.
            Svensk teater före 1900.
        </cmt>
        <desc>Djurgårdsteatern</desc>
        <link href="http://sv.wikipedia.org/wiki/Djurgårdsteatern">
            <text>Djurgårdsteatern</text>
            <type>Wikipedia</type>
        </link>
    </wpt>
    <wpt lat="59.33029722" lon="18.07728889">
        <name>Wallmans salonger</name>
        <cmt>Nöjeslokaler i Stockholm. Dansställen i Sverige. Företag inom underhållning. Blasieholmen.</cmt>
        <desc>Wallmans salonger</desc>
        <link href="http://sv.wikipedia.org/wiki/Wallmans_salonger">
            <text>Wallmans salonger</text>
            <type>Wikipedia</type>
        </link>
    </wpt>
    <wpt lat="59.32416667" lon="18.09625">
        <name>Restaurang Tyrol</name>
        <cmt>Konsertscener i Stockholm. Nöjeslokaler i Stockholm. Djurgården. Restauranger i Stockholm. Gröna Lund.
            Krogshow.
        </cmt>
        <desc>Restaurang Tyrol</desc>
        <link href="http://sv.wikipedia.org/wiki/Restaurang_Tyrol">
            <text>Restaurang Tyrol</text>
            <type>Wikipedia</type>
        </link>
    </wpt>
    <wpt lat="59.32966667" lon="18.06833333">
        <name>Hotell Rydberg</name>
        <cmt>Nöjeslokaler i Stockholm. Historiska hotell i Stockholm. Byggnader ritade av Johan Fredrik Åbom. Företag
            upplösta 1914. Företag bildade 1857. Ej längre existerande byggnader på Norrmalm.
        </cmt>
        <desc>Hotell Rydberg</desc>
        <link href="http://sv.wikipedia.org/wiki/Hotell_Rydberg">
            <text>Hotell Rydberg</text>
            <type>Wikipedia</type>
        </link>
    </wpt>
    <wpt lat="59.33008056" lon="18.0697">
        <name>Danmarks ambassad i Stockholm</name>
        <cmt>Bildanden 1722. Relationer mellan Danmark och Sverige. Ambassader i Stockholm.</cmt>
        <desc>Danmarks ambassad i Stockholm</desc>
        <link href="http://sv.wikipedia.org/wiki/Danmarks_ambassad_i_Stockholm">
            <text>Danmarks ambassad i Stockholm</text>
            <type>Wikipedia</type>
        </link>
    </wpt>
    <wpt lat="59.32222222" lon="18.0725">
        <name>Expressen- och Dagens Nyheter-skyltarna</name>
        <cmt>Reklam. Gamla stan. Ljusskyltar i Stockholm.</cmt>
        <desc>Expressen- och Dagens Nyheter-skyltarna</desc>
        <link href="http://sv.wikipedia.org/wiki/Expressen-_och_Dagens_Nyheter-skyltarna">
            <text>Expressen- och Dagens Nyheter-skyltarna</text>
            <type>Wikipedia</type>
        </link>
    </wpt>
    <wpt lat="59.32222222" lon="18.1125">
        <name>Ryssviken (Djurgården)</name>
        <cmt>Djurgården.</cmt>
        <desc>Ryssviken (Djurgården)</desc>
        <link href="http://sv.wikipedia.org/wiki/Ryssviken_(Djurgården)">
            <text>Ryssviken (Djurgården)</text>
            <type>Wikipedia</type>
        </link>
    </wpt>
    <wpt lat="59.32201944" lon="18.10205833">
        <name>Beckholmsbron</name>
        <cmt>Broar invigda 1992. Djurgården. Broar i Stockholm.</cmt>
        <desc>Beckholmsbron</desc>
        <link href="http://sv.wikipedia.org/wiki/Beckholmsbron">
            <text>Beckholmsbron</text>
            <type>Wikipedia</type>
        </link>
    </wpt>
    <wpt lat="59.32333333" lon="18.10388889">
        <name>Af Pontins väg</name>
        <cmt>Gator och torg på Djurgården. Illustrationsbehov-Stockholm.</cmt>
        <desc>Af Pontins väg</desc>
        <link href="http://sv.wikipedia.org/wiki/Af_Pontins_väg">
            <text>Af Pontins väg</text>
            <type>Wikipedia</type>
        </link>
    </wpt>
    <wpt lat="59.33115833" lon="18.07621944">
        <name>Kungliga Musikaliska Akademiens hus</name>
        <cmt>Musik i Stockholm. Byggnadsminnen i Stockholms kommun. Byggnader ritade av Johan Fredrik Åbom. Byggnader på
            Blasieholmen. Konserthus i Sverige.
        </cmt>
        <desc>Kungliga Musikaliska Akademiens hus</desc>
        <link href="http://sv.wikipedia.org/wiki/Kungliga_Musikaliska_Akademiens_hus">
            <text>Kungliga Musikaliska Akademiens hus</text>
            <type>Wikipedia</type>
        </link>
    </wpt>
    <wpt lat="59.32596389" lon="18.07492778">
        <name>Wittmarckska huset</name>
        <cmt>Skeppsbron. Byggnader i Gamla stan.</cmt>
        <desc>Wittmarckska huset</desc>
        <link href="http://sv.wikipedia.org/wiki/Wittmarckska_huset">
            <text>Wittmarckska huset</text>
            <type>Wikipedia</type>
        </link>
    </wpt>
    <wpt lat="59.32394409" lon="18.07452774">
        <name>Pelikansgränd</name>
        <cmt>Gator och torg i Gamla stan.</cmt>
        <desc>Pelikansgränd</desc>
        <link href="http://sv.wikipedia.org/wiki/Pelikansgränd">
            <text>Pelikansgränd</text>
            <type>Wikipedia</type>
        </link>
    </wpt>
    <wpt lat="59.32438889" lon="18.07519444">
        <name>Drakens gränd</name>
        <cmt>Gator och torg i Gamla stan.</cmt>
        <desc>Drakens gränd</desc>
        <link href="http://sv.wikipedia.org/wiki/Drakens_gränd">
            <text>Drakens gränd</text>
            <type>Wikipedia</type>
        </link>
    </wpt>
    <wpt lat="59.33416748" lon="18.07444382">
        <name>Rännilen</name>
        <cmt>Östermalm. Kvarter i Stockholm. Stockholms historia.</cmt>
        <desc>Rännilen</desc>
        <link href="http://sv.wikipedia.org/wiki/Rännilen">
            <text>Rännilen</text>
            <type>Wikipedia</type>
        </link>
    </wpt>
    <wpt lat="59.32209167" lon="18.10103333">
        <name>Beckholmssundet</name>
        <cmt>Sund i Sverige. Djurgården.</cmt>
        <desc>Beckholmssundet</desc>
        <link href="http://sv.wikipedia.org/wiki/Beckholmssundet">
            <text>Beckholmssundet</text>
            <type>Wikipedia</type>
        </link>
    </wpt>
    <wpt lat="59.32986069" lon="18.07230568">
        <name>Arsenalsteatern</name>
        <cmt>Teatrar i Stockholm.</cmt>
        <desc>Arsenalsteatern</desc>
        <link href="http://sv.wikipedia.org/wiki/Arsenalsteatern">
            <text>Arsenalsteatern</text>
            <type>Wikipedia</type>
        </link>
    </wpt>
    <wpt lat="59.31558611" lon="18.12450278">
        <name>Docklands (klubb)</name>
        <cmt>Företag upplösta 2002. Nedlagda nattklubbar i Stockholm. Företag bildade 1995. Nacka kommun.
            Illustrationsbehov-Stockholm.
        </cmt>
        <desc>Docklands (klubb)</desc>
        <link href="http://sv.wikipedia.org/wiki/Docklands_(klubb)">
            <text>Docklands (klubb)</text>
            <type>Wikipedia</type>
        </link>
    </wpt>
    <wpt lat="59.33061111" lon="18.07313889">
        <name>Arsenalsgatan</name>
        <cmt>Gator och torg på Norrmalm. Blasieholmen. Gågator i Sverige.</cmt>
        <desc>Arsenalsgatan</desc>
        <link href="http://sv.wikipedia.org/wiki/Arsenalsgatan">
            <text>Arsenalsgatan</text>
            <type>Wikipedia</type>
        </link>
    </wpt>
    <wpt lat="59.33189722" lon="18.08062222">
        <name>Strandvägen 7</name>
        <cmt>Byggnader på Östermalm. Byggnader ritade av Hagström och Ekman.</cmt>
        <desc>Strandvägen 7</desc>
        <link href="http://sv.wikipedia.org/wiki/Strandvägen_7">
            <text>Strandvägen 7</text>
            <type>Wikipedia</type>
        </link>
    </wpt>
    <wpt lat="59.33138889" lon="18.07444444">
        <name>Arsenalsgatan 6</name>
        <cmt>Historiska bankbyggnader i Sverige. Byggnader på Norrmalm.</cmt>
        <desc>Arsenalsgatan 6</desc>
        <link href="http://sv.wikipedia.org/wiki/Arsenalsgatan_6">
            <text>Arsenalsgatan 6</text>
            <type>Wikipedia</type>
        </link>
    </wpt>
    <wpt lat="59.31699371" lon="18.1400547">
        <name>Nackademin</name>
        <cmt>Yrkeshögskolor i Sverige. Svenska datorspelsutbildningar. Kvalificerade yrkesutbildningar. Gymnasieskolor i
            Sverige.
        </cmt>
        <desc>Nackademin</desc>
        <link href="http://sv.wikipedia.org/wiki/Nackademin">
            <text>Nackademin</text>
            <type>Wikipedia</type>
        </link>
    </wpt>
    <wpt lat="59.33022222" lon="18.07467778">
        <name>Fersenska palatset</name>
        <cmt>Palats i Stockholm. Harry Friberg. Byggnadsminnen i Stockholms kommun. Byggnader på Blasieholmen.</cmt>
        <desc>Fersenska palatset</desc>
        <link href="http://sv.wikipedia.org/wiki/Fersenska_palatset">
            <text>Fersenska palatset</text>
            <type>Wikipedia</type>
        </link>
    </wpt>
    <wpt lat="59.32575" lon="18.10876111">
        <name>Ekshäradsgården</name>
        <cmt>Skansen. Värmlands historia. Sverige under 1820-talet.</cmt>
        <desc>Ekshäradsgården</desc>
        <link href="http://sv.wikipedia.org/wiki/Ekshäradsgården">
            <text>Ekshäradsgården</text>
            <type>Wikipedia</type>
        </link>
    </wpt>
    <wpt lat="59.32648087" lon="18.10321426">
        <name>Posthuset, Skansen</name>
        <cmt>Skansen. Virserum.</cmt>
        <desc>Posthuset, Skansen</desc>
        <link href="http://sv.wikipedia.org/wiki/Posthuset,_Skansen">
            <text>Posthuset, Skansen</text>
            <type>Wikipedia</type>
        </link>
    </wpt>
    <wpt lat="59.32763889" lon="18.07269444">
        <name>Bernadottebiblioteket</name>
        <cmt>Verksamheter i Gamla stan. Bibliotek i Stockholm. Kungliga hovstaterna. Stockholms slott.</cmt>
        <desc>Bernadottebiblioteket</desc>
        <link href="http://sv.wikipedia.org/wiki/Bernadottebiblioteket">
            <text>Bernadottebiblioteket</text>
            <type>Wikipedia</type>
        </link>
    </wpt>
    <wpt lat="59.32616111" lon="18.073925">
        <name>Flemingska palatset</name>
        <cmt>Byggnader i Gamla stan. Privatpalats i Stockholm. Byggnadsminnen i Stockholms kommun. Byggnader avbildade i
            Suecian.
        </cmt>
        <desc>Flemingska palatset</desc>
        <link href="http://sv.wikipedia.org/wiki/Flemingska_palatset">
            <text>Flemingska palatset</text>
            <type>Wikipedia</type>
        </link>
    </wpt>
    <wpt lat="59.32972222" lon="18.07055556">
        <name>Kungliga Operan</name>
        <cmt>Byggnader på Norrmalm. Operahus i Sverige. Kvarter i Stockholm. Konsertscener i Stockholm. Svenska företag
            med statligt ägande. Teaterinstitutioner och teatergrupper. Teatrar i Stockholm. Organisationer bildade
            1773.
        </cmt>
        <desc>Kungliga Operan</desc>
        <link href="http://sv.wikipedia.org/wiki/Kungliga_Operan">
            <text>Kungliga Operan</text>
            <type>Wikipedia</type>
        </link>
    </wpt>
    <wpt lat="59.32918333" lon="18.07767222">
        <name>Våghusgränd</name>
        <cmt>Gator och torg på Norrmalm. Blasieholmen.</cmt>
        <desc>Våghusgränd</desc>
        <link href="http://sv.wikipedia.org/wiki/Våghusgränd">
            <text>Våghusgränd</text>
            <type>Wikipedia</type>
        </link>
    </wpt>
    <wpt lat="59.32722222" lon="18.08430556">
        <name>Östra Brobänken</name>
        <cmt>Gator och torg på Skeppsholmen.</cmt>
        <desc>Östra Brobänken</desc>
        <link href="http://sv.wikipedia.org/wiki/Östra_Brobänken">
            <text>Östra Brobänken</text>
            <type>Wikipedia</type>
        </link>
    </wpt>
    <wpt lat="59.33527778" lon="18.08944444">
        <name>Kurckan</name>
        <cmt>Ej längre existerande byggnader på Östermalm. Kvarnar i Stockholms län.</cmt>
        <desc>Kurckan</desc>
        <link href="http://sv.wikipedia.org/wiki/Kurckan">
            <text>Kurckan</text>
            <type>Wikipedia</type>
        </link>
    </wpt>
    <wpt lat="59.32583333" lon="18.09805556">
        <name>Villa Jägarbacken</name>
        <cmt>Villor på Djurgården.</cmt>
        <desc>Villa Jägarbacken</desc>
        <link href="http://sv.wikipedia.org/wiki/Villa_Jägarbacken">
            <text>Villa Jägarbacken</text>
            <type>Wikipedia</type>
        </link>
    </wpt>
    <wpt lat="59.32861111" lon="18.07777778">
        <name>Nationalmuseum (byggnad)</name>
        <cmt>Blasieholmen. Konstmuseer och konsthallar i Stockholm. Statliga konstmuseer och konsthallar i Sverige.
            Byggnader på Blasieholmen.
        </cmt>
        <desc>Nationalmuseum (byggnad)</desc>
        <link href="http://sv.wikipedia.org/wiki/Nationalmuseum_(byggnad)">
            <text>Nationalmuseum (byggnad)</text>
            <type>Wikipedia</type>
        </link>
    </wpt>
    <wpt lat="59.32635" lon="18.08236389">
        <name>Skeppsholmskyrkan</name>
        <cmt>Tidigare kyrkobyggnader i Sverige. Byggnader ritade av Fredrik Blom. Skeppsholmen. Religiösa byggnader
            invigda 1842.
        </cmt>
        <desc>Skeppsholmskyrkan</desc>
        <link href="http://sv.wikipedia.org/wiki/Skeppsholmskyrkan">
            <text>Skeppsholmskyrkan</text>
            <type>Wikipedia</type>
        </link>
    </wpt>
    <wpt lat="59.32491389" lon="18.075075">
        <name>Kvarteret Bacchus</name>
        <cmt>Kvarter i Gamla stan. Stockholms historia. Byggnader i Gamla stan.</cmt>
        <desc>Kvarteret Bacchus</desc>
        <link href="http://sv.wikipedia.org/wiki/Kvarteret_Bacchus">
            <text>Kvarteret Bacchus</text>
            <type>Wikipedia</type>
        </link>
    </wpt>
    <wpt lat="59.33349991" lon="18.10319519">
        <name>Artillerikyrkogården</name>
        <cmt>Begravningsplatser i Stockholm. Diplomatstaden. Östermalm.</cmt>
        <desc>Artillerikyrkogården</desc>
        <link href="http://sv.wikipedia.org/wiki/Artillerikyrkogården">
            <text>Artillerikyrkogården</text>
            <type>Wikipedia</type>
        </link>
    </wpt>
    <wpt lat="59.32055556" lon="18.12055556">
        <name>Villa Kvikkjokk</name>
        <cmt>Villor på Djurgården.</cmt>
        <desc>Villa Kvikkjokk</desc>
        <link href="http://sv.wikipedia.org/wiki/Villa_Kvikkjokk">
            <text>Villa Kvikkjokk</text>
            <type>Wikipedia</type>
        </link>
    </wpt>
    <wpt lat="59.31861115" lon="18.10750008">
        <name>Saltsjön</name>
        <cmt>Fjärdar i Stockholms skärgård. Nacka kommun. Sjöfart i Stockholm. Stockholms geografi. Lidingö kommun.
        </cmt>
        <desc>Saltsjön</desc>
        <link href="http://sv.wikipedia.org/wiki/Saltsjön">
            <text>Saltsjön</text>
            <type>Wikipedia</type>
        </link>
    </wpt>
    <wpt lat="59.32111111" lon="18.1175">
        <name>Frisens park</name>
        <cmt>Parker i Stockholms kommun. Djurgården.</cmt>
        <desc>Frisens park</desc>
        <link href="http://sv.wikipedia.org/wiki/Frisens_park">
            <text>Frisens park</text>
            <type>Wikipedia</type>
        </link>
    </wpt>
    <wpt lat="59.33472222" lon="18.08583333">
        <name>Kvarteret Neptunus, Östermalm</name>
        <cmt>Kvarter i Stockholm. Byggnader på Östermalm.</cmt>
        <desc>Kvarteret Neptunus, Östermalm</desc>
        <link href="http://sv.wikipedia.org/wiki/Kvarteret_Neptunus,_Östermalm">
            <text>Kvarteret Neptunus, Östermalm</text>
            <type>Wikipedia</type>
        </link>
    </wpt>
    <wpt lat="59.32361111" lon="18.10527778">
        <name>Villa Bergabo</name>
        <cmt>Ferdinand Boberg. Villor på Djurgården. 1906 i Sverige. Arkitekturåret 1906.</cmt>
        <desc>Villa Bergabo</desc>
        <link href="http://sv.wikipedia.org/wiki/Villa_Bergabo">
            <text>Villa Bergabo</text>
            <type>Wikipedia</type>
        </link>
    </wpt>
    <wpt lat="59.32303056" lon="18.1283">
        <name>Listonhill</name>
        <cmt>1791 i Sverige. Villor på Djurgården. Arkitekturåret 1791.</cmt>
        <desc>Listonhill</desc>
        <link href="http://sv.wikipedia.org/wiki/Listonhill">
            <text>Listonhill</text>
            <type>Wikipedia</type>
        </link>
    </wpt>
    <wpt lat="59.33336111" lon="18.09938889">
        <name>Oxenstiernsgatan</name>
        <cmt>Gator och torg på Östermalm.</cmt>
        <desc>Oxenstiernsgatan</desc>
        <link href="http://sv.wikipedia.org/wiki/Oxenstiernsgatan">
            <text>Oxenstiernsgatan</text>
            <type>Wikipedia</type>
        </link>
    </wpt>
    <wpt lat="59.32452778" lon="18.07488889">
        <name>Kvarteret Castor</name>
        <cmt>Kvarter i Gamla stan. Stockholms historia. Byggnader i Gamla stan.</cmt>
        <desc>Kvarteret Castor</desc>
        <link href="http://sv.wikipedia.org/wiki/Kvarteret_Castor">
            <text>Kvarteret Castor</text>
            <type>Wikipedia</type>
        </link>
    </wpt>
    <wpt lat="59.33019167" lon="18.07525556">
        <name>Stallgatan</name>
        <cmt>Gator och torg på Norrmalm.</cmt>
        <desc>Stallgatan</desc>
        <link href="http://sv.wikipedia.org/wiki/Stallgatan">
            <text>Stallgatan</text>
            <type>Wikipedia</type>
        </link>
    </wpt>
    <wpt lat="59.332925" lon="18.10369722">
        <name>Villa Bonde</name>
        <cmt>1925 i Sverige. Cyrillus Johansson. Arkitekturåret 1925. Villor i Diplomatstaden.</cmt>
        <desc>Villa Bonde</desc>
        <link href="http://sv.wikipedia.org/wiki/Villa_Bonde">
            <text>Villa Bonde</text>
            <type>Wikipedia</type>
        </link>
    </wpt>
    <wpt lat="59.32577778" lon="18.07505556">
        <name>Skeppar Karls gränd</name>
        <cmt>Gator och torg i Gamla stan.</cmt>
        <desc>Skeppar Karls gränd</desc>
        <link href="http://sv.wikipedia.org/wiki/Skeppar_Karls_gränd">
            <text>Skeppar Karls gränd</text>
            <type>Wikipedia</type>
        </link>
    </wpt>
    <wpt lat="59.32472222" lon="18.07194444">
        <name>Kvarteret Cepheus</name>
        <cmt>Kvarter i Gamla stan. Stockholms historia. Ej längre existerande byggnader i Gamla stan. Byggnader i Gamla
            stan.
        </cmt>
        <desc>Kvarteret Cepheus</desc>
        <link href="http://sv.wikipedia.org/wiki/Kvarteret_Cepheus">
            <text>Kvarteret Cepheus</text>
            <type>Wikipedia</type>
        </link>
    </wpt>
    <wpt lat="59.32583333" lon="18.07027778">
        <name>Storkyrkans tornur</name>
        <cmt>Ur. Gamla stan.</cmt>
        <desc>Storkyrkans tornur</desc>
        <link href="http://sv.wikipedia.org/wiki/Storkyrkans_tornur">
            <text>Storkyrkans tornur</text>
            <type>Wikipedia</type>
        </link>
    </wpt>
    <wpt lat="59.33333333" lon="18.07805556">
        <name>Musik- och teatermuseet</name>
        <cmt>Museer nedlagda 2014. Musik i Stockholm. Nöjeshistoriska museer och samlingar. Kulturhistoriska museer i
            Sverige. Teater i Sverige. Musikmuseer. Teatermuseer. Centralmuseer i Sverige. Statliga museer i Stockholm.
        </cmt>
        <desc>Musik- och teatermuseet</desc>
        <link href="http://sv.wikipedia.org/wiki/Musik-_och_teatermuseet">
            <text>Musik- och teatermuseet</text>
            <type>Wikipedia</type>
        </link>
    </wpt>
    <wpt lat="59.33029722" lon="18.07734444">
        <name>Drottning Victorias Örlogshem</name>
        <cmt>Hotell i Stockholm. Byggnader på Blasieholmen. Blasieholmen. Stiftelser i Sverige. Organisationer bildade
            1908.
        </cmt>
        <desc>Drottning Victorias Örlogshem</desc>
        <link href="http://sv.wikipedia.org/wiki/Drottning_Victorias_Örlogshem">
            <text>Drottning Victorias Örlogshem</text>
            <type>Wikipedia</type>
        </link>
    </wpt>
    <wpt lat="59.32472229" lon="18.07052803">
        <name>Skomakargatan</name>
        <cmt>Gator och torg i Gamla stan.</cmt>
        <desc>Skomakargatan</desc>
        <link href="http://sv.wikipedia.org/wiki/Skomakargatan">
            <text>Skomakargatan</text>
            <type>Wikipedia</type>
        </link>
    </wpt>
    <wpt lat="59.32555556" lon="18.09833333">
        <name>Villa Hasselbacken</name>
        <cmt>Villor på Djurgården.</cmt>
        <desc>Villa Hasselbacken</desc>
        <link href="http://sv.wikipedia.org/wiki/Villa_Hasselbacken">
            <text>Villa Hasselbacken</text>
            <type>Wikipedia</type>
        </link>
    </wpt>
    <wpt lat="59.3225" lon="18.1">
        <name>Galärvarvet</name>
        <cmt>Djurgården. Nedlagda svenska skeppsvarv. Sjöfart i Stockholm.</cmt>
        <desc>Galärvarvet</desc>
        <link href="http://sv.wikipedia.org/wiki/Galärvarvet">
            <text>Galärvarvet</text>
            <type>Wikipedia</type>
        </link>
    </wpt>
    <wpt lat="59.32775278" lon="18.09461111">
        <name>Galärvarvskyrkogården</name>
        <cmt>Begravningsplatser i Stockholm. Djurgården. Galärvarvskyrkogården.</cmt>
        <desc>Galärvarvskyrkogården</desc>
        <link href="http://sv.wikipedia.org/wiki/Galärvarvskyrkogården">
            <text>Galärvarvskyrkogården</text>
            <type>Wikipedia</type>
        </link>
    </wpt>
    <wpt lat="59.32966667" lon="18.06833333">
        <name>Kastenhof</name>
        <cmt>Ej längre existerande byggnader på Norrmalm.</cmt>
        <desc>Kastenhof</desc>
        <link href="http://sv.wikipedia.org/wiki/Kastenhof">
            <text>Kastenhof</text>
            <type>Wikipedia</type>
        </link>
    </wpt>
    <wpt lat="59.32985" lon="18.06885">
        <name>Gustav Adolf torg 18</name>
        <cmt>Byggnader ritade av Isak Gustaf Clason. Byggnader på Norrmalm. Historiska bankbyggnader i Sverige.</cmt>
        <desc>Gustav Adolf torg 18</desc>
        <link href="http://sv.wikipedia.org/wiki/Gustav_Adolf_torg_18">
            <text>Gustav Adolf torg 18</text>
            <type>Wikipedia</type>
        </link>
    </wpt>