<?xml version="1.0" encoding="UTF-8"?>
<gpx xmlns:xsi="http://www.w3.org/2001/XMLSchema-instance" xmlns="http://www.topografix.com/GPX/1/1"
     xsi:schemaLocation="http://www.topografix.com/GPX/1/1 http://www.topografix.com/GPX/1/1/gpx.xsd" version="1.1"
     creator="Carl Johan Rehn">
    <metadata>
        <name>Mörbystråket</name>
        <desc>GPX-koordinater för Wikipedia-artiklar.
        </desc>
        <author>
            <name>Carl Johan Rehn</name>
            <email id="care02" domain="gmail.com"/>
            <link href="https://github.com/carljohanrehn/hikepy-gpx"></link>
        </author>
        <copyright author="Carl Johan Rehn">
            <year>2016</year>
            <license>http://opendatacommons.org/licenses/odbl/1.0/</license>
        </copyright>
        <link href="http://www.openstreetmap.org/copyright/">
            <text>(c) OpenStreetMap contributors</text>
            <type>OpenStreetMap Copyright and License</type>
        </link>
    </metadata>
    <wpt lat="59.33294444" lon="18.06910833">
        <name>NK-klockan</name>
        <cmt>Ur. Norrmalm. Reklam. Ljusskyltar i Stockholm.</cmt>
        <desc>NK-klockan</desc>
        <link href="http://sv.wikipedia.org/wiki/NK-klockan">
            <text>NK-klockan</text>
            <type>Wikipedia</type>
        </link>
    </wpt>
    <wpt lat="59.36666667" lon="18.05">
        <name>Villa Frescati</name>
        <cmt>Villor på Djurgården. Arkitekturåret 1792. 1792 i Sverige. Norra Djurgården.</cmt>
        <desc>Villa Frescati</desc>
        <link href="http://sv.wikipedia.org/wiki/Villa_Frescati">
            <text>Villa Frescati</text>
            <type>Wikipedia</type>
        </link>
    </wpt>
    <wpt lat="59.34416667" lon="18.06388889">
        <name>Träsket, Stockholm</name>
        <cmt>Norrmalm. Ej längre existerande insjöar. Insjöar i Uppland. Kvarter i Stockholm. Vasastan.</cmt>
        <desc>Träsket, Stockholm</desc>
        <link href="http://sv.wikipedia.org/wiki/Träsket,_Stockholm">
            <text>Träsket, Stockholm</text>
            <type>Wikipedia</type>
        </link>
    </wpt>
    <wpt lat="59.36899948" lon="18.04372978">
        <name>Bergianska trädgårdens jätteknölkallor</name>
        <cmt>Kallaväxter. Norra Djurgården.</cmt>
        <desc>Bergianska trädgårdens jätteknölkallor</desc>
        <link href="http://sv.wikipedia.org/wiki/Bergianska_trädgårdens_jätteknölkallor">
            <text>Bergianska trädgårdens jätteknölkallor</text>
            <type>Wikipedia</type>
        </link>
    </wpt>
    <wpt lat="59.33294444" lon="18.06472222">
        <name>Klara (skulptur)</name>
        <cmt>Skulpturer i Stockholm.</cmt>
        <desc>Klara (skulptur)</desc>
        <link href="http://sv.wikipedia.org/wiki/Klara_(skulptur)">
            <text>Klara (skulptur)</text>
            <type>Wikipedia</type>
        </link>
    </wpt>
    <wpt lat="59.35222244" lon="18.03583336">
        <name>Radiumhemmet</name>
        <cmt>Organisationer bildade 1910. Byggnader ritade av Carl Westman. Cancer. Karolinska universitetssjukhuset.
            Byggnader i Solna kommun.
        </cmt>
        <desc>Radiumhemmet</desc>
        <link href="http://sv.wikipedia.org/wiki/Radiumhemmet">
            <text>Radiumhemmet</text>
            <type>Wikipedia</type>
        </link>
    </wpt>
    <wpt lat="59.33611111" lon="18.06777778">
        <name>Kåken (restaurang)</name>
        <cmt>Norrmalm. Vinnare av Gulddraken. Företag bildade 2009. Restauranger i Stockholm.</cmt>
        <desc>Kåken (restaurang)</desc>
        <link href="http://sv.wikipedia.org/wiki/Kåken_(restaurang)">
            <text>Kåken (restaurang)</text>
            <type>Wikipedia</type>
        </link>
    </wpt>
    <wpt lat="59.35277778" lon="18.05138889">
        <name>Carl Eldhs ateljémuseum</name>
        <cmt>Byggnader ritade av Ragnar Östberg. Carl Eldh. Konstmuseer och konsthallar i Stockholm. Konstnärsmuseer i
            Sverige. Museer invigda 1963. Skulpturmuseer i Sverige.
        </cmt>
        <desc>Carl Eldhs ateljémuseum</desc>
        <link href="http://sv.wikipedia.org/wiki/Carl_Eldhs_ateljémuseum">
            <text>Carl Eldhs ateljémuseum</text>
            <type>Wikipedia</type>
        </link>
    </wpt>
    <wpt lat="59.32536111" lon="18.06999722">
        <name>Cornelis Vreeswijkmuseet</name>
        <cmt>Ej längre existerande museer i Stockholm. Museer invigda 2000. Museer nedlagda 2011.</cmt>
        <desc>Cornelis Vreeswijkmuseet</desc>
        <link href="http://sv.wikipedia.org/wiki/Cornelis_Vreeswijkmuseet">
            <text>Cornelis Vreeswijkmuseet</text>
            <type>Wikipedia</type>
        </link>
    </wpt>
    <wpt lat="59.32942778" lon="18.06880278">
        <name>Gustav II Adolfs staty, Stockholm</name>
        <cmt>Ryttarstatyer i Sverige. Skulpturer i Stockholm. Regentskulpturer i Sverige.</cmt>
        <desc>Gustav II Adolfs staty, Stockholm</desc>
        <link href="http://sv.wikipedia.org/wiki/Gustav_II_Adolfs_staty,_Stockholm">
            <text>Gustav II Adolfs staty, Stockholm</text>
            <type>Wikipedia</type>
        </link>
    </wpt>
    <wpt lat="59.33562778" lon="18.06454722">
        <name>Royal, Stockholm</name>
        <cmt>Nedlagda biografer i Stockholm.</cmt>
        <desc>Royal, Stockholm</desc>
        <link href="http://sv.wikipedia.org/wiki/Royal,_Stockholm">
            <text>Royal, Stockholm</text>
            <type>Wikipedia</type>
        </link>
    </wpt>
    <wpt lat="59.35238889" lon="18.05455556">
        <name>Roslagsvägen</name>
        <cmt>Gator och torg i Stockholm. Stockholms historia. Roslagen. Vägtrafik i Stockholm.</cmt>
        <desc>Roslagsvägen</desc>
        <link href="http://sv.wikipedia.org/wiki/Roslagsvägen">
            <text>Roslagsvägen</text>
            <type>Wikipedia</type>
        </link>
    </wpt>
    <wpt lat="59.32833333" lon="18.06972222">
        <name>Norrbrobasaren</name>
        <cmt>Köpcentrum i Stockholms län. Ej längre existerande byggnader på Norrmalm.</cmt>
        <desc>Norrbrobasaren</desc>
        <link href="http://sv.wikipedia.org/wiki/Norrbrobasaren">
            <text>Norrbrobasaren</text>
            <type>Wikipedia</type>
        </link>
    </wpt>
    <wpt lat="59.338575" lon="18.06821389">
        <name>Zita</name>
        <cmt>Norrmalm. Biografer i Stockholm.</cmt>
        <desc>Zita</desc>
        <link href="http://sv.wikipedia.org/wiki/Zita">
            <text>Zita</text>
            <type>Wikipedia</type>
        </link>
    </wpt>
    <wpt lat="59.37638855" lon="18.03333282">
        <name>Bergshamra gård</name>
        <cmt>Solna kommun. Bergshamra.</cmt>
        <desc>Bergshamra gård</desc>
        <link href="http://sv.wikipedia.org/wiki/Bergshamra_gård">
            <text>Bergshamra gård</text>
            <type>Wikipedia</type>
        </link>
    </wpt>
    <wpt lat="59.32858276" lon="18.06669426">
        <name>Drottninggatan, Stockholm</name>
        <cmt>Gator och torg på Norrmalm. Gator och torg i Vasastan.</cmt>
        <desc>Drottninggatan, Stockholm</desc>
        <link href="http://sv.wikipedia.org/wiki/Drottninggatan,_Stockholm">
            <text>Drottninggatan, Stockholm</text>
            <type>Wikipedia</type>
        </link>
    </wpt>
    <wpt lat="59.34083176" lon="18.06638908">
        <name>Skandalhuset vid Roslagstorg</name>
        <cmt>Ej längre existerande byggnader på Östermalm.</cmt>
        <desc>Skandalhuset vid Roslagstorg</desc>
        <link href="http://sv.wikipedia.org/wiki/Skandalhuset_vid_Roslagstorg">
            <text>Skandalhuset vid Roslagstorg</text>
            <type>Wikipedia</type>
        </link>
    </wpt>
    <wpt lat="59.33615278" lon="18.06836944">
        <name>Rigoletto (biograf)</name>
        <cmt>Biografer i Stockholm.</cmt>
        <desc>Rigoletto (biograf)</desc>
        <link href="http://sv.wikipedia.org/wiki/Rigoletto_(biograf)">
            <text>Rigoletto (biograf)</text>
            <type>Wikipedia</type>
        </link>
    </wpt>
    <wpt lat="59.33041667" lon="18.07055556">
        <name>Sankt Jacobs kyrka</name>
        <cmt>Kyrkobyggnader i Stockholms innerstad. Alla sidor föreslagna att flyttas. Byggnader på Norrmalm. Religiösa
            byggnader invigda 1643. Orgeldispositioner. Sidor föreslagna att flyttas 2014-09. Kyrkobyggnader i
            Stockholms stift.
        </cmt>
        <desc>Sankt Jacobs kyrka</desc>
        <link href="http://sv.wikipedia.org/wiki/Sankt_Jacobs_kyrka">
            <text>Sankt Jacobs kyrka</text>
            <type>Wikipedia</type>
        </link>
    </wpt>
    <wpt lat="59.34076691" lon="18.06609535">
        <name>Eriksbergsplan</name>
        <cmt>Gator och torg på Östermalm.</cmt>
        <desc>Eriksbergsplan</desc>
        <link href="http://sv.wikipedia.org/wiki/Eriksbergsplan">
            <text>Eriksbergsplan</text>
            <type>Wikipedia</type>
        </link>
    </wpt>
    <wpt lat="59.38038889" lon="18.0555">
        <name>Cedergrenska tornet</name>
        <cmt>Stocksund. Torn i Sverige. Byggnader i Danderyds kommun.</cmt>
        <desc>Cedergrenska tornet</desc>
        <link href="http://sv.wikipedia.org/wiki/Cedergrenska_tornet">
            <text>Cedergrenska tornet</text>
            <type>Wikipedia</type>
        </link>
    </wpt>
    <wpt lat="59.38333333" lon="18.03444444">
        <name>Bergshamra vattentorn</name>
        <cmt>Vattentorn i Sverige. Bergshamra.</cmt>
        <desc>Bergshamra vattentorn</desc>
        <link href="http://sv.wikipedia.org/wiki/Bergshamra_vattentorn">
            <text>Bergshamra vattentorn</text>
            <type>Wikipedia</type>
        </link>
    </wpt>
    <wpt lat="59.38333333" lon="18.04055556">
        <name>Stocksundet</name>
        <cmt>Stocksund. Sund i Sverige. Bergshamra.</cmt>
        <desc>Stocksundet</desc>
        <link href="http://sv.wikipedia.org/wiki/Stocksundet">
            <text>Stocksundet</text>
            <type>Wikipedia</type>
        </link>
    </wpt>
    <wpt lat="59.34649277" lon="18.06115913">
        <name>Clas på Hörnet</name>
        <cmt>Vasastan. Restauranger i Stockholm.</cmt>
        <desc>Clas på Hörnet</desc>
        <link href="http://sv.wikipedia.org/wiki/Clas_på_Hörnet">
            <text>Clas på Hörnet</text>
            <type>Wikipedia</type>
        </link>
    </wpt>
    <wpt lat="59.34458333" lon="18.05833333">
        <name>Olssons Skor-skylten</name>
        <cmt>Vasastan. Reklam. Ljusskyltar i Stockholm.</cmt>
        <desc>Olssons Skor-skylten</desc>
        <link href="http://sv.wikipedia.org/wiki/Olssons_Skor-skylten">
            <text>Olssons Skor-skylten</text>
            <type>Wikipedia</type>
        </link>
    </wpt>
    <wpt lat="59.32685833" lon="18.06711389">
        <name>Kanslikajen</name>
        <cmt>Gator och torg i Gamla stan.</cmt>
        <desc>Kanslikajen</desc>
        <link href="http://sv.wikipedia.org/wiki/Kanslikajen">
            <text>Kanslikajen</text>
            <type>Wikipedia</type>
        </link>
    </wpt>
    <wpt lat="59.38722222" lon="18.04">
        <name>Inverness, Stocksund</name>
        <cmt>Stocksund.</cmt>
        <desc>Inverness, Stocksund</desc>
        <link href="http://sv.wikipedia.org/wiki/Inverness,_Stocksund">
            <text>Inverness, Stocksund</text>
            <type>Wikipedia</type>
        </link>
    </wpt>
    <wpt lat="59.37777778" lon="18.05305556">
        <name>Bockholmen</name>
        <cmt>Öar i Stockholms skärgård. Bergshamra.</cmt>
        <desc>Bockholmen</desc>
        <link href="http://sv.wikipedia.org/wiki/Bockholmen">
            <text>Bockholmen</text>
            <type>Wikipedia</type>
        </link>
    </wpt>
    <wpt lat="59.33333333" lon="18.06666667">
        <name>Norrmalm</name>
        <cmt>Norrmalm. Stadsdelar i Stockholm.</cmt>
        <desc>Norrmalm</desc>
        <link href="http://sv.wikipedia.org/wiki/Norrmalm">
            <text>Norrmalm</text>
            <type>Wikipedia</type>
        </link>
    </wpt>
    <wpt lat="59.34386063" lon="18.05594444">
        <name>Rialto, biograf</name>
        <cmt>Nedlagda biografer i Stockholm.</cmt>
        <desc>Rialto, biograf</desc>
        <link href="http://sv.wikipedia.org/wiki/Rialto,_biograf">
            <text>Rialto, biograf</text>
            <type>Wikipedia</type>
        </link>
    </wpt>
    <wpt lat="59.33111111" lon="18.06388889">
        <name>Kronprinsen, Stockholm</name>
        <cmt>Norrmalm. Historiska hotell i Stockholm. Restauranger i Stockholm. Företag bildade 1894.</cmt>
        <desc>Kronprinsen, Stockholm</desc>
        <link href="http://sv.wikipedia.org/wiki/Kronprinsen,_Stockholm">
            <text>Kronprinsen, Stockholm</text>
            <type>Wikipedia</type>
        </link>
    </wpt>
    <wpt lat="59.32730556" lon="18.07108333">
        <name>Lejonbacken</name>
        <cmt>Stockholms slott. Gator och torg i Gamla stan. Byggnader ritade av Per Axel Nyström.</cmt>
        <desc>Lejonbacken</desc>
        <link href="http://sv.wikipedia.org/wiki/Lejonbacken">
            <text>Lejonbacken</text>
            <type>Wikipedia</type>
        </link>
    </wpt>
    <wpt lat="59.34388889" lon="18.05527778">
        <name>Sveabron</name>
        <cmt>Broar invigda 1897. Vasastan. Broar i Stockholm.</cmt>
        <desc>Sveabron</desc>
        <link href="http://sv.wikipedia.org/wiki/Sveabron">
            <text>Sveabron</text>
            <type>Wikipedia</type>
        </link>
    </wpt>
    <wpt lat="59.3325" lon="18.065">
        <name>Sergelarkaden</name>
        <cmt>Gator och torg på Norrmalm.</cmt>
        <desc>Sergelarkaden</desc>
        <link href="http://sv.wikipedia.org/wiki/Sergelarkaden">
            <text>Sergelarkaden</text>
            <type>Wikipedia</type>
        </link>
    </wpt>
    <wpt lat="59.34166718" lon="18.05249977">
        <name>Studentpalatset</name>
        <cmt>Byggnader i Vasastan. Byggnader ritade av Erik Lallerstedt.</cmt>
        <desc>Studentpalatset</desc>
        <link href="http://sv.wikipedia.org/wiki/Studentpalatset">
            <text>Studentpalatset</text>
            <type>Wikipedia</type>
        </link>
    </wpt>
    <wpt lat="59.38068008" lon="18.03583908">
        <name>Bergshamra, Solna kommun</name>
        <cmt>Stadsdelar i Solna kommun. Bergshamra.</cmt>
        <desc>Bergshamra, Solna kommun</desc>
        <link href="http://sv.wikipedia.org/wiki/Bergshamra,_Solna_kommun">
            <text>Bergshamra, Solna kommun</text>
            <type>Wikipedia</type>
        </link>
    </wpt>
    <wpt lat="59.33138889" lon="18.07027778">
        <name>Kungliga Trädgården 3</name>
        <cmt>Byggnader på Norrmalm.</cmt>
        <desc>Kungliga Trädgården 3</desc>
        <link href="http://sv.wikipedia.org/wiki/Kungliga_Trädgården_3">
            <text>Kungliga Trädgården 3</text>
            <type>Wikipedia</type>
        </link>
    </wpt>
    <wpt lat="59.32833333" lon="18.06555556">
        <name>Kvarteret Rosenbad</name>
        <cmt>Kvarter i Stockholm.</cmt>
        <desc>Kvarteret Rosenbad</desc>
        <link href="http://sv.wikipedia.org/wiki/Kvarteret_Rosenbad">
            <text>Kvarteret Rosenbad</text>
            <type>Wikipedia</type>
        </link>
    </wpt>
    <wpt lat="59.32589444" lon="18.06960278">
        <name>Axel Oxenstiernas palats</name>
        <cmt>Byggnader avbildade i Suecian. Privatpalats i Stockholm. Byggnadsminnen i Stockholms kommun. Byggnader i
            Gamla stan.
        </cmt>
        <desc>Axel Oxenstiernas palats</desc>
        <link href="http://sv.wikipedia.org/wiki/Axel_Oxenstiernas_palats">
            <text>Axel Oxenstiernas palats</text>
            <type>Wikipedia</type>
        </link>
    </wpt>
    <wpt lat="59.33554167" lon="18.06521389">
        <name>Järnplåten 29</name>
        <cmt>Historiska bankbyggnader i Sverige. Byggnader på Norrmalm.</cmt>
        <desc>Järnplåten 29</desc>
        <link href="http://sv.wikipedia.org/wiki/Järnplåten_29">
            <text>Järnplåten 29</text>
            <type>Wikipedia</type>
        </link>
    </wpt>
    <wpt lat="59.33113611" lon="18.06700556">
        <name>Trollhättan 33</name>
        <cmt>Swedbank. Sparbanksbyggnader i Sverige. Byggnader på Norrmalm.</cmt>
        <desc>Trollhättan 33</desc>
        <link href="http://sv.wikipedia.org/wiki/Trollhättan_33">
            <text>Trollhättan 33</text>
            <type>Wikipedia</type>
        </link>
    </wpt>
    <wpt lat="59.4" lon="18.03333333">
        <name>Mörby, Danderyds kommun</name>
        <cmt>Danderyds kommun.</cmt>
        <desc>Mörby, Danderyds kommun</desc>
        <link href="http://sv.wikipedia.org/wiki/Mörby,_Danderyds_kommun">
            <text>Mörby, Danderyds kommun</text>
            <type>Wikipedia</type>
        </link>
    </wpt>
    <wpt lat="59.33120833" lon="18.06575">
        <name>Sergel Plaza</name>
        <cmt>Hotell i Stockholm. Byggnader på Norrmalm.</cmt>
        <desc>Sergel Plaza</desc>
        <link href="http://sv.wikipedia.org/wiki/Sergel_Plaza">
            <text>Sergel Plaza</text>
            <type>Wikipedia</type>
        </link>
    </wpt>
    <wpt lat="59.38194444" lon="18.05027778">
        <name>Djursholmsbanans elverk</name>
        <cmt>Stocksund. Kraftverk i Sverige.</cmt>
        <desc>Djursholmsbanans elverk</desc>
        <link href="http://sv.wikipedia.org/wiki/Djursholmsbanans_elverk">
            <text>Djursholmsbanans elverk</text>
            <type>Wikipedia</type>
        </link>
    </wpt>
    <wpt lat="59.33582222" lon="18.06373889">
        <name>Centrumhuset, Stockholm</name>
        <cmt>Cyrillus Johansson. Byggnader på Norrmalm.</cmt>
        <desc>Centrumhuset, Stockholm</desc>
        <link href="http://sv.wikipedia.org/wiki/Centrumhuset,_Stockholm">
            <text>Centrumhuset, Stockholm</text>
            <type>Wikipedia</type>
        </link>
    </wpt>
    <wpt lat="59.32611084" lon="18.06638908">
        <name>Bondeska palatset</name>
        <cmt>Byggnader avbildade i Suecian. Privatpalats i Stockholm. Domstolsbyggnader i Sverige. Byggnader i Gamla
            stan.
        </cmt>
        <desc>Bondeska palatset</desc>
        <link href="http://sv.wikipedia.org/wiki/Bondeska_palatset">
            <text>Bondeska palatset</text>
            <type>Wikipedia</type>
        </link>
    </wpt>
    <wpt lat="59.35972214" lon="18.06444359">
        <name>Norra Djurgårdens stridsvagnsspärr</name>
        <cmt>Stockholms fasta försvar. Stockholms historia.</cmt>
        <desc>Norra Djurgårdens stridsvagnsspärr</desc>
        <link href="http://sv.wikipedia.org/wiki/Norra_Djurgårdens_stridsvagnsspärr">
            <text>Norra Djurgårdens stridsvagnsspärr</text>
            <type>Wikipedia</type>
        </link>
    </wpt>
    <wpt lat="59.34222222" lon="18.06166667">
        <name>Tulestationen</name>
        <cmt>Ferdinand Boberg. Byggnader i Vasastan. Tekniska försörjningssystem i Stockholm.</cmt>
        <desc>Tulestationen</desc>
        <link href="http://sv.wikipedia.org/wiki/Tulestationen">
            <text>Tulestationen</text>
            <type>Wikipedia</type>
        </link>
    </wpt>
    <wpt lat="59.34407806" lon="18.05680275">
        <name>Stockholms samgymnasium</name>
        <cmt>Ej längre existerande skolor i Stockholm. Utbildningsinstitutioner upplösta 1970. Utbildningsinstitutioner
            bildade 1902. Ugglan.
        </cmt>
        <desc>Stockholms samgymnasium</desc>
        <link href="http://sv.wikipedia.org/wiki/Stockholms_samgymnasium">
            <text>Stockholms samgymnasium</text>
            <type>Wikipedia</type>
        </link>
    </wpt>
    <wpt lat="59.34277778" lon="18.04888889">
        <name>Odenplan (tunnelbanestation)</name>
        <cmt>Vasastan. Stockholms tunnelbanestationer. Järnvägsstationer invigda 1952.</cmt>
        <desc>Odenplan (tunnelbanestation)</desc>
        <link href="http://sv.wikipedia.org/wiki/Odenplan_(tunnelbanestation)">
            <text>Odenplan (tunnelbanestation)</text>
            <type>Wikipedia</type>
        </link>
    </wpt>
    <wpt lat="59.32930833" lon="18.06687778">
        <name>Fredsgatan 4</name>
        <cmt>Byggnader ritade av Gustaf Wickman. Historiska bankbyggnader i Sverige. Byggnader på Norrmalm.</cmt>
        <desc>Fredsgatan 4</desc>
        <link href="http://sv.wikipedia.org/wiki/Fredsgatan_4">
            <text>Fredsgatan 4</text>
            <type>Wikipedia</type>
        </link>
    </wpt>
    <wpt lat="59.32583333" lon="18.07027778">
        <name>Stockholms domkyrkodistrikt</name>
        <cmt>Indelningar i Stockholms kommun. Distrikt i Stockholms län.</cmt>
        <desc>Stockholms domkyrkodistrikt</desc>
        <link href="http://sv.wikipedia.org/wiki/Stockholms_domkyrkodistrikt">
            <text>Stockholms domkyrkodistrikt</text>
            <type>Wikipedia</type>
        </link>
    </wpt>
    <wpt lat="59.36583333" lon="18.03638889">
        <name>Gustav III:s block</name>
        <cmt>Solna kommun. Gustav III. Flyttblock. Hagaparken.</cmt>
        <desc>Gustav III:s block</desc>
        <link href="http://sv.wikipedia.org/wiki/Gustav_III:s_block">
            <text>Gustav III:s block</text>
            <type>Wikipedia</type>
        </link>
    </wpt>
    <wpt lat="59.32566833" lon="18.06794357">
        <name>Cattelin</name>
        <cmt>Harry Friberg. Restauranger i Stockholm.</cmt>
        <desc>Cattelin</desc>
        <link href="http://sv.wikipedia.org/wiki/Cattelin">
            <text>Cattelin</text>
            <type>Wikipedia</type>
        </link>
    </wpt>
    <wpt lat="59.32548333" lon="18.06704722">
        <name>Ryningska palatset</name>
        <cmt>Privatpalats i Stockholm. Byggnadsminnen i Stockholms kommun. Byggnader i Gamla stan.</cmt>
        <desc>Ryningska palatset</desc>
        <link href="http://sv.wikipedia.org/wiki/Ryningska_palatset">
            <text>Ryningska palatset</text>
            <type>Wikipedia</type>
        </link>
    </wpt>
    <wpt lat="59.32838333" lon="18.07079444">
        <name>Solsångaren</name>
        <cmt>Esaias Tegnér. Konståret 1926. Skulpturer av Carl Milles. 1926 i Sverige. Skulpturer i Gamla stan.</cmt>
        <desc>Solsångaren</desc>
        <link href="http://sv.wikipedia.org/wiki/Solsångaren">
            <text>Solsångaren</text>
            <type>Wikipedia</type>
        </link>
    </wpt>
    <wpt lat="59.35102778" lon="18.05513889">
        <name>Cedersdalsgatan</name>
        <cmt>Bostad. Gator och torg i Vasastan.</cmt>
        <desc>Cedersdalsgatan</desc>
        <link href="http://sv.wikipedia.org/wiki/Cedersdalsgatan">
            <text>Cedersdalsgatan</text>
            <type>Wikipedia</type>
        </link>
    </wpt>
    <wpt lat="59.32586944" lon="18.07150556">
        <name>Obelisken i Stockholm</name>
        <cmt>Obelisker. Skulpturer i Gamla stan. Gamla stan. Minnesmärken i Sverige.</cmt>
        <desc>Obelisken i Stockholm</desc>
        <link href="http://sv.wikipedia.org/wiki/Obelisken_i_Stockholm">
            <text>Obelisken i Stockholm</text>
            <type>Wikipedia</type>
        </link>
    </wpt>
    <wpt lat="59.33925" lon="18.06258333">
        <name>Kammakargatan</name>
        <cmt>Gator och torg på Norrmalm.</cmt>
        <desc>Kammakargatan</desc>
        <link href="http://sv.wikipedia.org/wiki/Kammakargatan">
            <text>Kammakargatan</text>
            <type>Wikipedia</type>
        </link>
    </wpt>
    <wpt lat="59.35027778" lon="18.0625">
        <name>Ruddammen</name>
        <cmt>Norra Djurgården.</cmt>
        <desc>Ruddammen</desc>
        <link href="http://sv.wikipedia.org/wiki/Ruddammen">
            <text>Ruddammen</text>
            <type>Wikipedia</type>
        </link>
    </wpt>
    <wpt lat="59.33611389" lon="18.06804167">
        <name>Kungshuset, Kungsgatan</name>
        <cmt>Byggnader på Norrmalm.</cmt>
        <desc>Kungshuset, Kungsgatan</desc>
        <link href="http://sv.wikipedia.org/wiki/Kungshuset,_Kungsgatan">
            <text>Kungshuset, Kungsgatan</text>
            <type>Wikipedia</type>
        </link>
    </wpt>
    <wpt lat="59.32583333" lon="18.06944444">
        <name>Beijerska huset</name>
        <cmt>Privatpalats i Stockholm. Byggnadsminnen i Stockholms kommun. Byggnader i Gamla stan.</cmt>
        <desc>Beijerska huset</desc>
        <link href="http://sv.wikipedia.org/wiki/Beijerska_huset">
            <text>Beijerska huset</text>
            <type>Wikipedia</type>
        </link>
    </wpt>
    <wpt lat="59.34944444" lon="18.03861111">
        <name>Hagastaden</name>
        <cmt>Solna kommun. Pågående byggprojekt i Stockholm. Stockholms kommun.</cmt>
        <desc>Hagastaden</desc>
        <link href="http://sv.wikipedia.org/wiki/Hagastaden">
            <text>Hagastaden</text>
            <type>Wikipedia</type>
        </link>
    </wpt>
    <wpt lat="59.35087778" lon="18.05125556">
        <name>Socialhögskolan (Stockholms universitet)</name>
        <cmt>Institutioner vid Stockholms universitet. Funktionalistisk arkitektur. Byggnader i Vasastan.</cmt>
        <desc>Socialhögskolan (Stockholms universitet)</desc>
        <link href="http://sv.wikipedia.org/wiki/Socialhögskolan_(Stockholms_universitet)">
            <text>Socialhögskolan (Stockholms universitet)</text>
            <type>Wikipedia</type>
        </link>
    </wpt>
    <wpt lat="59.32625" lon="18.06902778">
        <name>Prästgatan</name>
        <cmt>Gator och torg i Gamla stan.</cmt>
        <desc>Prästgatan</desc>
        <link href="http://sv.wikipedia.org/wiki/Prästgatan">
            <text>Prästgatan</text>
            <type>Wikipedia</type>
        </link>
    </wpt>
    <wpt lat="59.33328889" lon="18.06184444">
        <name>SOUK</name>
        <cmt>Norrmalm. Köpcentrum i Stockholms län.</cmt>
        <desc>SOUK</desc>
        <link href="http://sv.wikipedia.org/wiki/SOUK">
            <text>SOUK</text>
            <type>Wikipedia</type>
        </link>
    </wpt>
    <wpt lat="59.32541656" lon="18.06999969">
        <name>Ankargränd</name>
        <cmt>Gator och torg i Gamla stan.</cmt>
        <desc>Ankargränd</desc>
        <link href="http://sv.wikipedia.org/wiki/Ankargränd">
            <text>Ankargränd</text>
            <type>Wikipedia</type>
        </link>
    </wpt>
    <wpt lat="59.32672222" lon="18.06861111">
        <name>Mynttorget</name>
        <cmt>Gator och torg i Gamla stan.</cmt>
        <desc>Mynttorget</desc>
        <link href="http://sv.wikipedia.org/wiki/Mynttorget">
            <text>Mynttorget</text>
            <type>Wikipedia</type>
        </link>
    </wpt>
    <wpt lat="59.32697222" lon="18.06830556">
        <name>Stallbron</name>
        <cmt>Broar invigda 1904. Gamla stan. Broar i Stockholm.</cmt>
        <desc>Stallbron</desc>
        <link href="http://sv.wikipedia.org/wiki/Stallbron">
            <text>Stallbron</text>
            <type>Wikipedia</type>
        </link>
    </wpt>
    <wpt lat="59.33166667" lon="18.06555556">
        <name>Sveriges riksbank</name>
        <cmt>Europeiska centralbankssystemet. Sveriges Riksbank. Historiska verksamheter i Gamla stan. Banker bildade
            1668. Centralbanker.
        </cmt>
        <desc>Sveriges riksbank</desc>
        <link href="http://sv.wikipedia.org/wiki/Sveriges_riksbank">
            <text>Sveriges riksbank</text>
            <type>Wikipedia</type>
        </link>
    </wpt>
    <wpt lat="59.35008889" lon="18.04983889">
        <name>Sveaplan, Stockholm</name>
        <cmt>Gator och torg i Vasastan.</cmt>
        <desc>Sveaplan, Stockholm</desc>
        <link href="http://sv.wikipedia.org/wiki/Sveaplan,_Stockholm">
            <text>Sveaplan, Stockholm</text>
            <type>Wikipedia</type>
        </link>
    </wpt>
    <wpt lat="59.32777778" lon="18.06916667">
        <name>Helgeandsholmen</name>
        <cmt>Riksintressen för kulturmiljövården i Stockholms län. Öar i Stockholms kommun. Gamla stan. Öar i Mälaren.
        </cmt>
        <desc>Helgeandsholmen</desc>
        <link href="http://sv.wikipedia.org/wiki/Helgeandsholmen">
            <text>Helgeandsholmen</text>
            <type>Wikipedia</type>
        </link>
    </wpt>
    <wpt lat="59.36000061" lon="18.05305481">
        <name>Brunnsvikens Kanotklubb</name>
        <cmt>Sportklubbar i Stockholms kommun. Kanotsport. Sport i Stockholm.</cmt>
        <desc>Brunnsvikens Kanotklubb</desc>
        <link href="http://sv.wikipedia.org/wiki/Brunnsvikens_Kanotklubb">
            <text>Brunnsvikens Kanotklubb</text>
            <type>Wikipedia</type>
        </link>
    </wpt>
    <wpt lat="59.33379745" lon="18.06293869">
        <name>Beridarebanan</name>
        <cmt>Hästkapplöpningsbanor i Sverige. Ej längre existerande byggnader på Norrmalm. Sverige under
            stormaktstiden.
        </cmt>
        <desc>Beridarebanan</desc>
        <link href="http://sv.wikipedia.org/wiki/Beridarebanan">
            <text>Beridarebanan</text>
            <type>Wikipedia</type>
        </link>
    </wpt>
    <wpt lat="59.36972222" lon="18.04611111">
        <name>Bergianska trädgården</name>
        <cmt>Botaniska trädgårdar i Sverige. Byggnadsminnesförklarade trädgårdar. Parker i Stockholms kommun. Campus vid
            Stockholms universitet. Norra Djurgården.
        </cmt>
        <desc>Bergianska trädgården</desc>
        <link href="http://sv.wikipedia.org/wiki/Bergianska_trädgården">
            <text>Bergianska trädgården</text>
            <type>Wikipedia</type>
        </link>
    </wpt>
    <wpt lat="59.33282778" lon="18.06389444">
        <name>Sporren 16</name>
        <cmt>Byggnader på Norrmalm.</cmt>
        <desc>Sporren 16</desc>
        <link href="http://sv.wikipedia.org/wiki/Sporren_16">
            <text>Sporren 16</text>
            <type>Wikipedia</type>
        </link>
    </wpt>
    <wpt lat="59.33777778" lon="18.05833333">
        <name>Westmanska palatset</name>
        <cmt>Privatpalats i Stockholm. Byggnader på Norrmalm.</cmt>
        <desc>Westmanska palatset</desc>
        <link href="http://sv.wikipedia.org/wiki/Westmanska_palatset">
            <text>Westmanska palatset</text>
            <type>Wikipedia</type>
        </link>
    </wpt>
    <wpt lat="59.32661057" lon="18.06836128">
        <name>Myntgatan</name>
        <cmt>Gator och torg i Gamla stan.</cmt>
        <desc>Myntgatan</desc>
        <link href="http://sv.wikipedia.org/wiki/Myntgatan">
            <text>Myntgatan</text>
            <type>Wikipedia</type>
        </link>
    </wpt>
    <wpt lat="59.34602778" lon="18.06602778">
        <name>Estlands ambassad i Stockholm</name>
        <cmt>Bildanden 1920. Lärkstaden. Byggnader på Östermalm. Relationer mellan Estland och Sverige. Ambassader i
            Stockholm.
        </cmt>
        <desc>Estlands ambassad i Stockholm</desc>
        <link href="http://sv.wikipedia.org/wiki/Estlands_ambassad_i_Stockholm">
            <text>Estlands ambassad i Stockholm</text>
            <type>Wikipedia</type>
        </link>
    </wpt>
    <wpt lat="59.34644444" lon="18.06636111">
        <name>Lettlands ambassad i Stockholm</name>
        <cmt>Bildanden 1919. Lärkstaden. Byggnader på Östermalm. Byggnader ritade av Folke Zettervall. Ambassader i
            Stockholm. Relationer mellan Lettland och Sverige.
        </cmt>
        <desc>Lettlands ambassad i Stockholm</desc>
        <link href="http://sv.wikipedia.org/wiki/Lettlands_ambassad_i_Stockholm">
            <text>Lettlands ambassad i Stockholm</text>
            <type>Wikipedia</type>
        </link>
    </wpt>
    <wpt lat="59.34277778" lon="18.04972222">
        <name>Odenplan</name>
        <cmt>Gator och torg i Vasastan.</cmt>
        <desc>Odenplan</desc>
        <link href="http://sv.wikipedia.org/wiki/Odenplan">
            <text>Odenplan</text>
            <type>Wikipedia</type>
        </link>
    </wpt>
    <wpt lat="59.34144211" lon="18.0670166">
        <name>Eriksbergsparken, Stockholm</name>
        <cmt>Parker i Stockholms kommun. Östermalm.</cmt>
        <desc>Eriksbergsparken, Stockholm</desc>
        <link href="http://sv.wikipedia.org/wiki/Eriksbergsparken,_Stockholm">
            <text>Eriksbergsparken, Stockholm</text>
            <type>Wikipedia</type>
        </link>
    </wpt>
    <wpt lat="59.34733333" lon="18.065">
        <name>Surbrunnsgatan</name>
        <cmt>Gator och torg på Östermalm. Gator och torg i Vasastan.</cmt>
        <desc>Surbrunnsgatan</desc>
        <link href="http://sv.wikipedia.org/wiki/Surbrunnsgatan">
            <text>Surbrunnsgatan</text>
            <type>Wikipedia</type>
        </link>
    </wpt>
    <wpt lat="59.34859467" lon="18.05697441">
        <name>Sibirien, Stockholm</name>
        <cmt>Östermalm. Vasastan. Informella områden.</cmt>
        <desc>Sibirien, Stockholm</desc>
        <link href="http://sv.wikipedia.org/wiki/Sibirien,_Stockholm">
            <text>Sibirien, Stockholm</text>
            <type>Wikipedia</type>
        </link>
    </wpt>
    <wpt lat="59.34652778" lon="18.06658333">
        <name>Brasiliens ambassad i Stockholm</name>
        <cmt>Lärkstaden. Byggnader på Östermalm. Relationer mellan Brasilien och Sverige. Byggnader ritade av Folke
            Zettervall. Ambassader i Stockholm.
        </cmt>
        <desc>Brasiliens ambassad i Stockholm</desc>
        <link href="http://sv.wikipedia.org/wiki/Brasiliens_ambassad_i_Stockholm">
            <text>Brasiliens ambassad i Stockholm</text>
            <type>Wikipedia</type>
        </link>
    </wpt>
    <wpt lat="59.32636111" lon="18.06572222">
        <name>Riddarhusgränd</name>
        <cmt>Gator och torg i Gamla stan.</cmt>
        <desc>Riddarhusgränd</desc>
        <link href="http://sv.wikipedia.org/wiki/Riddarhusgränd">
            <text>Riddarhusgränd</text>
            <type>Wikipedia</type>
        </link>
    </wpt>
    <wpt lat="59.33209991" lon="18.06293297">
        <name>Länssparbankens hus</name>
        <cmt>Historiska sparbanksbyggnader i Sverige. Byggnader på Norrmalm.</cmt>
        <desc>Länssparbankens hus</desc>
        <link href="http://sv.wikipedia.org/wiki/Länssparbankens_hus">
            <text>Länssparbankens hus</text>
            <type>Wikipedia</type>
        </link>
    </wpt>
    <wpt lat="59.32640839" lon="18.07112503">
        <name>Gästvåningen</name>
        <cmt>Stockholms slott.</cmt>
        <desc>Gästvåningen</desc>
        <link href="http://sv.wikipedia.org/wiki/Gästvåningen">
            <text>Gästvåningen</text>
            <type>Wikipedia</type>
        </link>
    </wpt>
    <wpt lat="59.36416667" lon="18.05555556">
        <name>Juristernas hus</name>
        <cmt>Ralph Erskine. Byggnader på Östermalm. Byggnader vid Stockholms universitet.</cmt>
        <desc>Juristernas hus</desc>
        <link href="http://sv.wikipedia.org/wiki/Juristernas_hus">
            <text>Juristernas hus</text>
            <type>Wikipedia</type>
        </link>
    </wpt>
    <wpt lat="59.36527778" lon="18.05888889">
        <name>Arrheniuslaboratoriet</name>
        <cmt>Carl Nyrén. Norra Djurgården. Byggnader vid Stockholms universitet.</cmt>
        <desc>Arrheniuslaboratoriet</desc>
        <link href="http://sv.wikipedia.org/wiki/Arrheniuslaboratoriet">
            <text>Arrheniuslaboratoriet</text>
            <type>Wikipedia</type>
        </link>
    </wpt>
    <wpt lat="59.32561111" lon="18.07116699">
        <name>Källargränd</name>
        <cmt>Gator och torg i Gamla stan.</cmt>
        <desc>Källargränd</desc>
        <link href="http://sv.wikipedia.org/wiki/Källargränd">
            <text>Källargränd</text>
            <type>Wikipedia</type>
        </link>
    </wpt>
    <wpt lat="59.33085278" lon="18.066125">
        <name>Wahrenberg 10</name>
        <cmt>Byggnader på Norrmalm.</cmt>
        <desc>Wahrenberg 10</desc>
        <link href="http://sv.wikipedia.org/wiki/Wahrenberg_10">
            <text>Wahrenberg 10</text>
            <type>Wikipedia</type>
        </link>
    </wpt>
    <wpt lat="59.34248333" lon="18.06413611">
        <name>Arcadia (biograf)</name>
        <cmt>Byggnader på Östermalm. Nedlagda biografer i Stockholm.</cmt>
        <desc>Arcadia (biograf)</desc>
        <link href="http://sv.wikipedia.org/wiki/Arcadia_(biograf)">
            <text>Arcadia (biograf)</text>
            <type>Wikipedia</type>
        </link>
    </wpt>
    <wpt lat="59.33710556" lon="18.05912778">
        <name>Fenixpalatset</name>
        <cmt>Företag upplösta 1927. Företag bildade 1912. Nöjeslokaler i Stockholm. Restauranger i Stockholm.</cmt>
        <desc>Fenixpalatset</desc>
        <link href="http://sv.wikipedia.org/wiki/Fenixpalatset">
            <text>Fenixpalatset</text>
            <type>Wikipedia</type>
        </link>
    </wpt>
    <wpt lat="59.32611111" lon="18.06916667">
        <name>Kvarteret Neptunus större</name>
        <cmt>Kvarter i Gamla stan. Byggnadsminnen i Stockholms kommun. Kvarter i Stockholm.</cmt>
        <desc>Kvarteret Neptunus större</desc>
        <link href="http://sv.wikipedia.org/wiki/Kvarteret_Neptunus_större">
            <text>Kvarteret Neptunus större</text>
            <type>Wikipedia</type>
        </link>
    </wpt>
    <wpt lat="59.33055556" lon="18.06638889">
        <name>Brunkhalsen 5</name>
        <cmt>Byggnader ritade av Erik Josephson. Byggnader på Norrmalm.</cmt>
        <desc>Brunkhalsen 5</desc>
        <link href="http://sv.wikipedia.org/wiki/Brunkhalsen_5">
            <text>Brunkhalsen 5</text>
            <type>Wikipedia</type>
        </link>
    </wpt>
    <wpt lat="59.36277771" lon="18.04138947">
        <name>Ekotemplet, Hagaparken</name>
        <cmt>Hagaparken.</cmt>
        <desc>Ekotemplet, Hagaparken</desc>
        <link href="http://sv.wikipedia.org/wiki/Ekotemplet,_Hagaparken">
            <text>Ekotemplet, Hagaparken</text>
            <type>Wikipedia</type>
        </link>
    </wpt>
    <wpt lat="59.3425" lon="18.06416667">
        <name>Korskyrkan, Stockholm</name>
        <cmt>Svenska EFK-församlingar. Kyrkobyggnader i Stockholms innerstad.</cmt>
        <desc>Korskyrkan, Stockholm</desc>
        <link href="http://sv.wikipedia.org/wiki/Korskyrkan,_Stockholm">
            <text>Korskyrkan, Stockholm</text>
            <type>Wikipedia</type>
        </link>
    </wpt>
    <wpt lat="59.3575" lon="18.05416667">
        <name>Veterinärhögskolan</name>
        <cmt>Sveriges lantbruksuniversitet. Utbildningsinstitutioner upplösta 1977. Veterinärmedicin.
            Utbildningsinstitutioner bildade 1932.
        </cmt>
        <desc>Veterinärhögskolan</desc>
        <link href="http://sv.wikipedia.org/wiki/Veterinärhögskolan">
            <text>Veterinärhögskolan</text>
            <type>Wikipedia</type>
        </link>
    </wpt>
    <wpt lat="59.33084722" lon="18.06983889">
        <name>Stockholms handelskammare</name>
        <cmt>Stockholms län. Näringslivets intresseorganisationer i Sverige. Uppsala län.</cmt>
        <desc>Stockholms handelskammare</desc>
        <link href="http://sv.wikipedia.org/wiki/Stockholms_handelskammare">
            <text>Stockholms handelskammare</text>
            <type>Wikipedia</type>
        </link>
    </wpt>
    <wpt lat="59.33534167" lon="18.06218611">
        <name>Kungshallen</name>
        <cmt>Byggnader ritade av Edvard Bernhard. Varuhus i Sverige. Byggnader på Norrmalm.</cmt>
        <desc>Kungshallen</desc>
        <link href="http://sv.wikipedia.org/wiki/Kungshallen">
            <text>Kungshallen</text>
            <type>Wikipedia</type>
        </link>
    </wpt>
    <wpt lat="59.32889167" lon="18.06619722">
        <name>Skånebanken, Stockholm</name>
        <cmt>Byggnader ritade av Gustaf Wickman. Historiska bankbyggnader i Sverige. Byggnader på Norrmalm.</cmt>
        <desc>Skånebanken, Stockholm</desc>
        <link href="http://sv.wikipedia.org/wiki/Skånebanken,_Stockholm">
            <text>Skånebanken, Stockholm</text>
            <type>Wikipedia</type>
        </link>
    </wpt>
    <wpt lat="59.33194444" lon="18.065">
        <name>Klarabiografen</name>
        <cmt>Biografer i Stockholm.</cmt>
        <desc>Klarabiografen</desc>
        <link href="http://sv.wikipedia.org/wiki/Klarabiografen">
            <text>Klarabiografen</text>
            <type>Wikipedia</type>
        </link>
    </wpt>
    <wpt lat="59.3925" lon="18.02638889">
        <name>Kevinge gård</name>
        <cmt>Byggnader i Danderyds kommun.</cmt>
        <desc>Kevinge gård</desc>
        <link href="http://sv.wikipedia.org/wiki/Kevinge_gård">
            <text>Kevinge gård</text>
            <type>Wikipedia</type>
        </link>
    </wpt>
    <wpt lat="59.33218889" lon="18.06683333">
        <name>Trollhättan 29</name>
        <cmt>Bankbyggnader i Sverige. Byggnader på Norrmalm.</cmt>
        <desc>Trollhättan 29</desc>
        <link href="http://sv.wikipedia.org/wiki/Trollhättan_29">
            <text>Trollhättan 29</text>
            <type>Wikipedia</type>
        </link>
    </wpt>
    <wpt lat="59.33305556" lon="18.06805556">
        <name>Brunkebergsverket</name>
        <cmt>Kraftverk i Sverige. Ferdinand Boberg. Tekniska försörjningssystem i Stockholm. Ej längre existerande
            byggnader på Norrmalm.
        </cmt>
        <desc>Brunkebergsverket</desc>
        <link href="http://sv.wikipedia.org/wiki/Brunkebergsverket">
            <text>Brunkebergsverket</text>
            <type>Wikipedia</type>
        </link>
    </wpt>
    <wpt lat="59.38555" lon="18.0363">
        <name>Calles klimp</name>
        <cmt>Fornminnen i Uppland. Folkminnen. Folktro. Minnesmärken i Sverige. Danderyds kommun.</cmt>
        <desc>Calles klimp</desc>
        <link href="http://sv.wikipedia.org/wiki/Calles_klimp">
            <text>Calles klimp</text>
            <type>Wikipedia</type>
        </link>
    </wpt>
    <wpt lat="59.35300064" lon="18.05800056">
        <name>Nordita</name>
        <cmt>Forskningsinstitut vid Stockholms universitet. Nordiskt samarbete. Nordiska ministerrådet. Organisationer
            inom fysik. Forskningsinstitut.
        </cmt>
        <desc>Nordita</desc>
        <link href="http://sv.wikipedia.org/wiki/Nordita">
            <text>Nordita</text>
            <type>Wikipedia</type>
        </link>
    </wpt>
    <wpt lat="59.38083333" lon="18.05361111">
        <name>Skogshyddan</name>
        <cmt>Stocksund. Byggnader i Danderyds kommun.</cmt>
        <desc>Skogshyddan</desc>
        <link href="http://sv.wikipedia.org/wiki/Skogshyddan">
            <text>Skogshyddan</text>
            <type>Wikipedia</type>
        </link>
    </wpt>
    <wpt lat="59.32694444" lon="18.07166667">
        <name>Stockholms slott</name>
        <cmt>Stockholms slott. Svenska kungliga slott. Slott i Uppland. Fontäner i Stockholm.</cmt>
        <desc>Stockholms slott</desc>
        <link href="http://sv.wikipedia.org/wiki/Stockholms_slott">
            <text>Stockholms slott</text>
            <type>Wikipedia</type>
        </link>
    </wpt>
    <wpt lat="59.32583333" lon="18.07138889">
        <name>Tre Kronor (byggnad)</name>
        <cmt>Ej längre existerande torn i Sverige. Förstörda byggnadsverk. Gamla stans historia. Ej längre existerande
            borgar och slott i Sverige. Ej längre existerande byggnader i Gamla stan. Byggnader avbildade i Suecian.
            Stockholms historia.
        </cmt>
        <desc>Tre Kronor (byggnad)</desc>
        <link href="http://sv.wikipedia.org/wiki/Tre_Kronor_(byggnad)">
            <text>Tre Kronor (byggnad)</text>
            <type>Wikipedia</type>
        </link>
    </wpt>
    <wpt lat="59.32833333" lon="18.06986111">
        <name>Norrbro</name>
        <cmt>Norrmalm. Broar invigda 1807. Gamla stan. Broar i Stockholm.</cmt>
        <desc>Norrbro</desc>
        <link href="http://sv.wikipedia.org/wiki/Norrbro">
            <text>Norrbro</text>
            <type>Wikipedia</type>
        </link>
    </wpt>
    <wpt lat="59.33258333" lon="18.06519444">
        <name>Kristallvertikalaccent</name>
        <cmt>Glasskulpturer. Skulpturer i Stockholm. Stålskulpturer. Obelisker.</cmt>
        <desc>Kristallvertikalaccent</desc>
        <link href="http://sv.wikipedia.org/wiki/Kristallvertikalaccent">
            <text>Kristallvertikalaccent</text>
            <type>Wikipedia</type>
        </link>
    </wpt>
    <wpt lat="59.33168611" lon="18.06999167">
        <name>Nya Sällskapet</name>
        <cmt>Mansorganisationer. Byggnader på Norrmalm. Byggnadsminnen i Stockholms kommun. Organisationer i Sverige.
            Byggnader ritade av Axel Kumlien. Organisationer bildade 1874.
        </cmt>
        <desc>Nya Sällskapet</desc>
        <link href="http://sv.wikipedia.org/wiki/Nya_Sällskapet">
            <text>Nya Sällskapet</text>
            <type>Wikipedia</type>
        </link>
    </wpt>
    <wpt lat="59.357825" lon="18.04375">
        <name>Kinesiska paviljongen</name>
        <cmt>Hagaparken.</cmt>
        <desc>Kinesiska paviljongen</desc>
        <link href="http://sv.wikipedia.org/wiki/Kinesiska_paviljongen">
            <text>Kinesiska paviljongen</text>
            <type>Wikipedia</type>
        </link>
    </wpt>
    <wpt lat="59.33402778" lon="18.06363889">
        <name>Generalstabens litografiska anstalt</name>
        <cmt>Svenska tryckerier. Organisationer bildade 1833. Sveriges militärhistoria. Organisationer i Stockholm.
            Kartografi. Ej längre existerande svenska statliga organisationer.
        </cmt>
        <desc>Generalstabens litografiska anstalt</desc>
        <link href="http://sv.wikipedia.org/wiki/Generalstabens_litografiska_anstalt">
            <text>Generalstabens litografiska anstalt</text>
            <type>Wikipedia</type>
        </link>
    </wpt>
    <wpt lat="59.34555556" lon="18.06638889">
        <name>Balders hage (Stockholm)</name>
        <cmt>Parker i Stockholms kommun. Lärkstaden.</cmt>
        <desc>Balders hage (Stockholm)</desc>
        <link href="http://sv.wikipedia.org/wiki/Balders_hage_(Stockholm)">
            <text>Balders hage (Stockholm)</text>
            <type>Wikipedia</type>
        </link>
    </wpt>
    <wpt lat="59.39027786" lon="18.04277802">
        <name>Mörby gård</name>
        <cmt>Danderyds kommun.</cmt>
        <desc>Mörby gård</desc>
        <link href="http://sv.wikipedia.org/wiki/Mörby_gård">
            <text>Mörby gård</text>
            <type>Wikipedia</type>
        </link>
    </wpt>
    <wpt lat="59.33527756" lon="18.06175041">
        <name>Holländargatan</name>
        <cmt>Gator och torg på Norrmalm. Handelshögskolan i Stockholm.</cmt>
        <desc>Holländargatan</desc>
        <link href="http://sv.wikipedia.org/wiki/Holländargatan">
            <text>Holländargatan</text>
            <type>Wikipedia</type>
        </link>
    </wpt>
    <wpt lat="59.328" lon="18.06952778">
        <name>Riksplan</name>
        <cmt>Gator och torg i Gamla stan.</cmt>
        <desc>Riksplan</desc>
        <link href="http://sv.wikipedia.org/wiki/Riksplan">
            <text>Riksplan</text>
            <type>Wikipedia</type>
        </link>
    </wpt>
    <wpt lat="59.34083333" lon="18.06702778">
        <name>Runebergsgatan</name>
        <cmt>Gator och torg på Östermalm. Johan Ludvig Runeberg.</cmt>
        <desc>Runebergsgatan</desc>
        <link href="http://sv.wikipedia.org/wiki/Runebergsgatan">
            <text>Runebergsgatan</text>
            <type>Wikipedia</type>
        </link>
    </wpt>
    <wpt lat="59.33483611" lon="18.06888333">
        <name>Televerkets hus, Jakobsbergsgatan</name>
        <cmt>Byggnader på Norrmalm. Byggnader ritade av Aron Johansson. Byggnadsminnen i Stockholms kommun. Historiska
            offentliga byggnader i Sverige.
        </cmt>
        <desc>Televerkets hus, Jakobsbergsgatan</desc>
        <link href="http://sv.wikipedia.org/wiki/Televerkets_hus,_Jakobsbergsgatan">
            <text>Televerkets hus, Jakobsbergsgatan</text>
            <type>Wikipedia</type>
        </link>
    </wpt>
    <wpt lat="59.35106111" lon="18.03738056">
        <name>Eugeniahemmet</name>
        <cmt>Ej längre existerande sjukhus i Sverige. Bildanden 1879. Byggnader i Solna kommun. Stockholms historia.
            Byggnader ritade av Axel Kumlien.
        </cmt>
        <desc>Eugeniahemmet</desc>
        <link href="http://sv.wikipedia.org/wiki/Eugeniahemmet">
            <text>Eugeniahemmet</text>
            <type>Wikipedia</type>
        </link>
    </wpt>
    <wpt lat="59.33833333" lon="18.06138889">
        <name>Bonnierhuset, Sveavägen</name>
        <cmt>Bonnierkoncernen. Byggnader på Norrmalm. Byggnadsminnen i Stockholms kommun. Byggnader med anknytning till
            Bonnierfamiljen.
        </cmt>
        <desc>Bonnierhuset, Sveavägen</desc>
        <link href="http://sv.wikipedia.org/wiki/Bonnierhuset,_Sveavägen">
            <text>Bonnierhuset, Sveavägen</text>
            <type>Wikipedia</type>
        </link>
    </wpt>
    <wpt lat="59.34388889" lon="18.06138889">
        <name>Norra Real</name>
        <cmt>Byggnader i Vasastan. Gymnasieskolor i Stockholm. Ej längre existerande läroverk i Sverige.</cmt>
        <desc>Norra Real</desc>
        <link href="http://sv.wikipedia.org/wiki/Norra_Real">
            <text>Norra Real</text>
            <type>Wikipedia</type>
        </link>
    </wpt>
    <wpt lat="59.34165278" lon="18.05695278">
        <name>Handelshögskolan i Stockholms huvudbyggnad</name>
        <cmt>Byggnader ritade av Ivar Tengbom. Handelshögskolan i Stockholms byggnader. Byggnader i Vasastan.
            Handelshögskolan i Stockholm. Handelshögskolan i Stockholms historia.
        </cmt>
        <desc>Handelshögskolan i Stockholms huvudbyggnad</desc>
        <link href="http://sv.wikipedia.org/wiki/Handelshögskolan_i_Stockholms_huvudbyggnad">
            <text>Handelshögskolan i Stockholms huvudbyggnad</text>
            <type>Wikipedia</type>
        </link>
    </wpt>
    <wpt lat="59.38888889" lon="18.04361111">
        <name>Danderyd (kommundel)</name>
        <cmt>Kommundelar i Danderyds kommun. Postorter i Sverige.</cmt>
        <desc>Danderyd (kommundel)</desc>
        <link href="http://sv.wikipedia.org/wiki/Danderyd_(kommundel)">
            <text>Danderyd (kommundel)</text>
            <type>Wikipedia</type>
        </link>
    </wpt>
    <wpt lat="59.325" lon="18.06872222">
        <name>Gåstorget</name>
        <cmt>Enwp. Gator och torg i Gamla stan.</cmt>
        <desc>Gåstorget</desc>
        <link href="http://sv.wikipedia.org/wiki/Gåstorget">
            <text>Gåstorget</text>
            <type>Wikipedia</type>
        </link>
    </wpt>
    <wpt lat="59.32833333" lon="18.06611111">
        <name>Bondeska palatset, Rosenbad</name>
        <cmt>Avvecklade fideikommiss. Privatpalats i Stockholm. Ej längre existerande byggnader på Norrmalm.</cmt>
        <desc>Bondeska palatset, Rosenbad</desc>
        <link href="http://sv.wikipedia.org/wiki/Bondeska_palatset,_Rosenbad">
            <text>Bondeska palatset, Rosenbad</text>
            <type>Wikipedia</type>
        </link>
    </wpt>
    <wpt lat="59.33097222" lon="18.06972222">
        <name>Ecuadors ambassad i Stockholm</name>
        <cmt>Relationer mellan Ecuador och Sverige. Ambassader i Stockholm.</cmt>
        <desc>Ecuadors ambassad i Stockholm</desc>
        <link href="http://sv.wikipedia.org/wiki/Ecuadors_ambassad_i_Stockholm">
            <text>Ecuadors ambassad i Stockholm</text>
            <type>Wikipedia</type>
        </link>
    </wpt>
    <wpt lat="59.35194397" lon="18.05277824">
        <name>Paschs malmgård</name>
        <cmt>Malmgårdar i Stockholm. Byggnader i Vasastan.</cmt>
        <desc>Paschs malmgård</desc>
        <link href="http://sv.wikipedia.org/wiki/Paschs_malmgård">
            <text>Paschs malmgård</text>
            <type>Wikipedia</type>
        </link>
    </wpt>
    <wpt lat="59.32666667" lon="18.06694444">
        <name>Rannsakningsfängelset, Myntgatan</name>
        <cmt>Nedlagda fängelser i Stockholm. Ej längre existerande byggnader i Gamla stan.</cmt>
        <desc>Rannsakningsfängelset, Myntgatan</desc>
        <link href="http://sv.wikipedia.org/wiki/Rannsakningsfängelset,_Myntgatan">
            <text>Rannsakningsfängelset, Myntgatan</text>
            <type>Wikipedia</type>
        </link>
    </wpt>
    <wpt lat="59.33875" lon="18.06002778">
        <name>Birkagårdens folkhögskola</name>
        <cmt>Ej uppdaterad 2011-12. Utbildningsinstitutioner bildade 1916. Illustrationsbehov-Stockholm. Utbildning i
            Stockholm. Folkhögskolor i Sverige. Ej uppdaterad-samtliga.
        </cmt>
        <desc>Birkagårdens folkhögskola</desc>
        <link href="http://sv.wikipedia.org/wiki/Birkagårdens_folkhögskola">
            <text>Birkagårdens folkhögskola</text>
            <type>Wikipedia</type>
        </link>
    </wpt>
    <wpt lat="59.33648056" lon="18.06496944">
        <name>Apelbergsgatan</name>
        <cmt>Gator och torg på Norrmalm.</cmt>
        <desc>Apelbergsgatan</desc>
        <link href="http://sv.wikipedia.org/wiki/Apelbergsgatan">
            <text>Apelbergsgatan</text>
            <type>Wikipedia</type>
        </link>
    </wpt>
    <wpt lat="59.356875" lon="18.04088056">
        <name>Turkiska kiosken</name>
        <cmt>Hagaparken.</cmt>
        <desc>Turkiska kiosken</desc>
        <link href="http://sv.wikipedia.org/wiki/Turkiska_kiosken">
            <text>Turkiska kiosken</text>
            <type>Wikipedia</type>
        </link>
    </wpt>
    <wpt lat="59.32966667" lon="18.06833333">
        <name>Hotell Rydberg</name>
        <cmt>Nöjeslokaler i Stockholm. Historiska hotell i Stockholm. Byggnader ritade av Johan Fredrik Åbom. Företag
            upplösta 1914. Företag bildade 1857. Ej längre existerande byggnader på Norrmalm.
        </cmt>
        <desc>Hotell Rydberg</desc>
        <link href="http://sv.wikipedia.org/wiki/Hotell_Rydberg">
            <text>Hotell Rydberg</text>
            <type>Wikipedia</type>
        </link>
    </wpt>
    <wpt lat="59.32530556" lon="18.06883333">
        <name>Göran Hälsinges gränd</name>
        <cmt>Gator och torg i Gamla stan.</cmt>
        <desc>Göran Hälsinges gränd</desc>
        <link href="http://sv.wikipedia.org/wiki/Göran_Hälsinges_gränd">
            <text>Göran Hälsinges gränd</text>
            <type>Wikipedia</type>
        </link>
    </wpt>
    <wpt lat="59.3299" lon="18.06598">
        <name>Brunkhuvudet 4</name>
        <cmt>Byggnadsminnen i Stockholms kommun. Byggnader på Norrmalm.</cmt>
        <desc>Brunkhuvudet 4</desc>
        <link href="http://sv.wikipedia.org/wiki/Brunkhuvudet_4">
            <text>Brunkhuvudet 4</text>
            <type>Wikipedia</type>
        </link>
    </wpt>
    <wpt lat="59.32713056" lon="18.06863056">
        <name>Stallkanalen</name>
        <cmt>Vattendrag i Sverige. Gamla stan.</cmt>
        <desc>Stallkanalen</desc>
        <link href="http://sv.wikipedia.org/wiki/Stallkanalen">
            <text>Stallkanalen</text>
            <type>Wikipedia</type>
        </link>
    </wpt>
    <wpt lat="59.3394165" lon="18.06808281">
        <name>Eriksbergsgatan</name>
        <cmt>Gator och torg på Östermalm.</cmt>
        <desc>Eriksbergsgatan</desc>
        <link href="http://sv.wikipedia.org/wiki/Eriksbergsgatan">
            <text>Eriksbergsgatan</text>
            <type>Wikipedia</type>
        </link>
    </wpt>
    <wpt lat="59.36305618" lon="18.03972244">
        <name>Hagaparkens ekonomibyggnad</name>
        <cmt>Hagaparken.</cmt>
        <desc>Hagaparkens ekonomibyggnad</desc>
        <link href="http://sv.wikipedia.org/wiki/Hagaparkens_ekonomibyggnad">
            <text>Hagaparkens ekonomibyggnad</text>
            <type>Wikipedia</type>
        </link>
    </wpt>
    <wpt lat="59.35288333" lon="18.05855">
        <name>Vetenskapens hus i Stockholm</name>
        <cmt>Vetenskapscentrum i Sverige. Vetenskapsåret 2001. Utbildning i Stockholm. Bildanden 2001.</cmt>
        <desc>Vetenskapens hus i Stockholm</desc>
        <link href="http://sv.wikipedia.org/wiki/Vetenskapens_hus_i_Stockholm">
            <text>Vetenskapens hus i Stockholm</text>
            <type>Wikipedia</type>
        </link>
    </wpt>
    <wpt lat="59.34472222" lon="18.04888889">
        <name>Norra tivoli</name>
        <cmt>Vasastan. Nedlagda nöjesparker. Teatrar i Stockholm.</cmt>
        <desc>Norra tivoli</desc>
        <link href="http://sv.wikipedia.org/wiki/Norra_tivoli">
            <text>Norra tivoli</text>
            <type>Wikipedia</type>
        </link>
    </wpt>
    <wpt lat="59.335" lon="18.06055556">
        <name>Vinkelhaken 9</name>
        <cmt>Byggnader ritade av Erik Josephson. Historiska bankbyggnader i Sverige. Byggnader på Norrmalm.</cmt>
        <desc>Vinkelhaken 9</desc>
        <link href="http://sv.wikipedia.org/wiki/Vinkelhaken_9">
            <text>Vinkelhaken 9</text>
            <type>Wikipedia</type>
        </link>
    </wpt>
    <wpt lat="59.32550049" lon="18.06875038">
        <name>Stora Gråmunkegränd</name>
        <cmt>Gator och torg i Gamla stan.</cmt>
        <desc>Stora Gråmunkegränd</desc>
        <link href="http://sv.wikipedia.org/wiki/Stora_Gråmunkegränd">
            <text>Stora Gråmunkegränd</text>
            <type>Wikipedia</type>
        </link>
    </wpt>
    <wpt lat="59.34026718" lon="18.06895828">
        <name>Detthowska skolan</name>
        <cmt>Ej längre existerande skolor i Stockholm. Byggnader på Östermalm. Utbildningsinstitutioner upplösta 1933.
            Byggnader ritade av Hagström och Ekman. Utbildningsinstitutioner bildade 1896.
        </cmt>
        <desc>Detthowska skolan</desc>
        <link href="http://sv.wikipedia.org/wiki/Detthowska_skolan">
            <text>Detthowska skolan</text>
            <type>Wikipedia</type>
        </link>
    </wpt>
    <wpt lat="59.33405" lon="18.06545">
        <name>Putten 15</name>
        <cmt>Bankbyggnader i Sverige. Nordea. Byggnader på Norrmalm.</cmt>
        <desc>Putten 15</desc>
        <link href="http://sv.wikipedia.org/wiki/Putten_15">
            <text>Putten 15</text>
            <type>Wikipedia</type>
        </link>
    </wpt>
    <wpt lat="59.33083344" lon="18.06677818">
        <name>Gryning (skulptur)</name>
        <cmt>Skulpturer i Stockholm.</cmt>
        <desc>Gryning (skulptur)</desc>
        <link href="http://sv.wikipedia.org/wiki/Gryning_(skulptur)">
            <text>Gryning (skulptur)</text>
            <type>Wikipedia</type>
        </link>
    </wpt>
    <wpt lat="59.34805556" lon="18.04861111">
        <name>Stockholms stadsmissions barnhem</name>
        <cmt>Barnhem. Ej längre existerande byggnader i Vasastan.</cmt>
        <desc>Stockholms stadsmissions barnhem</desc>
        <link href="http://sv.wikipedia.org/wiki/Stockholms_stadsmissions_barnhem">
            <text>Stockholms stadsmissions barnhem</text>
            <type>Wikipedia</type>
        </link>
    </wpt>
    <wpt lat="59.34618611" lon="18.06741944">
        <name>Nigerias ambassad i Stockholm</name>
        <cmt>Lärkstaden. Byggnader på Östermalm. Relationer mellan Nigeria och Sverige. Bildanden 1972. Ambassader i
            Stockholm.
        </cmt>
        <desc>Nigerias ambassad i Stockholm</desc>
        <link href="http://sv.wikipedia.org/wiki/Nigerias_ambassad_i_Stockholm">
            <text>Nigerias ambassad i Stockholm</text>
            <type>Wikipedia</type>
        </link>
    </wpt>
    <wpt lat="59.33279419" lon="18.06668282">
        <name>Apollo (biograf)</name>
        <cmt>Norrmalm. Nedlagda biografer i Stockholm.</cmt>
        <desc>Apollo (biograf)</desc>
        <link href="http://sv.wikipedia.org/wiki/Apollo_(biograf)">
            <text>Apollo (biograf)</text>
            <type>Wikipedia</type>
        </link>
    </wpt>
    <wpt lat="59.33251667" lon="18.06992778">
        <name>Sverigeväggen</name>
        <cmt>Skulpturer i rostfritt stål. Skulpturer i Stockholm.</cmt>
        <desc>Sverigeväggen</desc>
        <link href="http://sv.wikipedia.org/wiki/Sverigeväggen">
            <text>Sverigeväggen</text>
            <type>Wikipedia</type>
        </link>
    </wpt>
    <wpt lat="59.33" lon="18.06666667">
        <name>Malmtorgsbadet</name>
        <cmt>Ej längre existerande byggnader på Norrmalm. Badhus i Stockholm.</cmt>
        <desc>Malmtorgsbadet</desc>
        <link href="http://sv.wikipedia.org/wiki/Malmtorgsbadet">
            <text>Malmtorgsbadet</text>
            <type>Wikipedia</type>
        </link>
    </wpt>
    <wpt lat="59.35935833" lon="18.04291389">
        <name>Villa Ädelsten</name>
        <cmt>Hagaparken.</cmt>
        <desc>Villa Ädelsten</desc>
        <link href="http://sv.wikipedia.org/wiki/Villa_Ädelsten">
            <text>Villa Ädelsten</text>
            <type>Wikipedia</type>
        </link>
    </wpt>
    <wpt lat="59.337" lon="18.05844444">
        <name>Centralvaruhuset</name>
        <cmt>Varuhus i Sverige. Byggnader på Norrmalm.</cmt>
        <desc>Centralvaruhuset</desc>
        <link href="http://sv.wikipedia.org/wiki/Centralvaruhuset">
            <text>Centralvaruhuset</text>
            <type>Wikipedia</type>
        </link>
    </wpt>
    <wpt lat="59.32857778" lon="18.06690833">
        <name>Adelswärdska huset</name>
        <cmt>Arkitekturåret 1890. Byggnader på Norrmalm. 1890 i Sverige. Byggnader ritade av Isak Gustaf Clason.
            Baroniet Adelswärd.
        </cmt>
        <desc>Adelswärdska huset</desc>
        <link href="http://sv.wikipedia.org/wiki/Adelswärdska_huset">
            <text>Adelswärdska huset</text>
            <type>Wikipedia</type>
        </link>
    </wpt>
    <wpt lat="59.33796111" lon="18.06806667">
        <name>Snickarbacken</name>
        <cmt>Gator och torg på Norrmalm.</cmt>
        <desc>Snickarbacken</desc>
        <link href="http://sv.wikipedia.org/wiki/Snickarbacken">
            <text>Snickarbacken</text>
            <type>Wikipedia</type>
        </link>
    </wpt>
    <wpt lat="59.325675" lon="18.06851389">
        <name>Storkyrkobrinken 7</name>
        <cmt>Byggnadsminnen i Stockholms kommun. Historiska bankbyggnader i Sverige. Byggnader i Gamla stan.</cmt>
        <desc>Storkyrkobrinken 7</desc>
        <link href="http://sv.wikipedia.org/wiki/Storkyrkobrinken_7">
            <text>Storkyrkobrinken 7</text>
            <type>Wikipedia</type>
        </link>
    </wpt>
    <wpt lat="59.33435" lon="18.06251111">
        <name>Hötorgshallen</name>
        <cmt>Saluhallar i Sverige. Byggnader på Norrmalm.</cmt>
        <desc>Hötorgshallen</desc>
        <link href="http://sv.wikipedia.org/wiki/Hötorgshallen">
            <text>Hötorgshallen</text>
            <type>Wikipedia</type>
        </link>
    </wpt>
    <wpt lat="59.337" lon="18.05844444">
        <name>Indiens ambassad i Stockholm</name>
        <cmt>Norrmalm. Bildanden 1948. Relationer mellan Indien och Sverige. Ambassader i Stockholm.</cmt>
        <desc>Indiens ambassad i Stockholm</desc>
        <link href="http://sv.wikipedia.org/wiki/Indiens_ambassad_i_Stockholm">
            <text>Indiens ambassad i Stockholm</text>
            <type>Wikipedia</type>
        </link>
    </wpt>
    <wpt lat="59.34305556" lon="18.05305556">
        <name>Spelbomskan</name>
        <cmt>Ej längre existerande byggnader i Vasastan. Kvarnar i Stockholms län.</cmt>
        <desc>Spelbomskan</desc>
        <link href="http://sv.wikipedia.org/wiki/Spelbomskan">
            <text>Spelbomskan</text>
            <type>Wikipedia</type>
        </link>
    </wpt>
    <wpt lat="59.32861111" lon="18.06611111">
        <name>Hôtel Garni</name>
        <cmt>Företag bildade 1832. Historiska hotell i Stockholm. Ej längre existerande svenska företag. Företag
            upplösta 1855. Illustrationsbehov-Stockholms historia. Ej längre existerande byggnader på Norrmalm.
        </cmt>
        <desc>Hôtel Garni</desc>
        <link href="http://sv.wikipedia.org/wiki/Hôtel_Garni">
            <text>Hôtel Garni</text>
            <type>Wikipedia</type>
        </link>
    </wpt>
    <wpt lat="59.34666667" lon="18.06194444">
        <name>Kristi förklarings ortodoxa kyrka, Stockholm</name>
        <cmt>Byggnadsminnen i Stockholms kommun. Kyrkobyggnader i Stockholms innerstad. Byggnader på Östermalm. Ortodoxa
            kyrkobyggnader i Sverige. Relationer mellan Ryssland och Sverige.
        </cmt>
        <desc>Kristi förklarings ortodoxa kyrka, Stockholm</desc>
        <link href="http://sv.wikipedia.org/wiki/Kristi_förklarings_ortodoxa_kyrka,_Stockholm">
            <text>Kristi förklarings ortodoxa kyrka, Stockholm</text>
            <type>Wikipedia</type>
        </link>
    </wpt>
    <wpt lat="59.35555649" lon="18.04638863">
        <name>Hagaparkens eremitage</name>
        <cmt>Solna kommun. Nedlagda byggprojekt i Stockholm. Hagaparken.</cmt>
        <desc>Hagaparkens eremitage</desc>
        <link href="http://sv.wikipedia.org/wiki/Hagaparkens_eremitage">
            <text>Hagaparkens eremitage</text>
            <type>Wikipedia</type>
        </link>
    </wpt>
    <wpt lat="59.38472222" lon="18.05194444">
        <name>Stocksunds vattentorn</name>
        <cmt>Stocksund. Vattentorn i Sverige. Byggnader i Danderyds kommun.</cmt>
        <desc>Stocksunds vattentorn</desc>
        <link href="http://sv.wikipedia.org/wiki/Stocksunds_vattentorn">
            <text>Stocksunds vattentorn</text>
            <type>Wikipedia</type>
        </link>
    </wpt>
    <wpt lat="59.35798645" lon="18.04025841">
        <name>Vasaslätten</name>
        <cmt>Hagaparken.</cmt>
        <desc>Vasaslätten</desc>
        <link href="http://sv.wikipedia.org/wiki/Vasaslätten">
            <text>Vasaslätten</text>
            <type>Wikipedia</type>
        </link>
    </wpt>
    <wpt lat="59.32527778" lon="18.069">
        <name>Ignatiigränd</name>
        <cmt>Gator och torg i Gamla stan.</cmt>
        <desc>Ignatiigränd</desc>
        <link href="http://sv.wikipedia.org/wiki/Ignatiigränd">
            <text>Ignatiigränd</text>
            <type>Wikipedia</type>
        </link>
    </wpt>
    <wpt lat="59.33222198" lon="18.06277847">
        <name>Klarabergsgatan</name>
        <cmt>Gator och torg på Norrmalm.</cmt>
        <desc>Klarabergsgatan</desc>
        <link href="http://sv.wikipedia.org/wiki/Klarabergsgatan">
            <text>Klarabergsgatan</text>
            <type>Wikipedia</type>
        </link>
    </wpt>
    <wpt lat="59.37734985" lon="18.02997971">
        <name>Övre Karlsro</name>
        <cmt>Byggnader i Solna kommun. Byggnadsminnen i Stockholms län. Bergshamra.</cmt>
        <desc>Övre Karlsro</desc>
        <link href="http://sv.wikipedia.org/wiki/Övre_Karlsro">
            <text>Övre Karlsro</text>
            <type>Wikipedia</type>
        </link>
    </wpt>
    <wpt lat="59.332775" lon="18.06776667">
        <name>Hästskopalatset</name>
        <cmt>Byggnader på Norrmalm.</cmt>
        <desc>Hästskopalatset</desc>
        <link href="http://sv.wikipedia.org/wiki/Hästskopalatset">
            <text>Hästskopalatset</text>
            <type>Wikipedia</type>
        </link>
    </wpt>
    <wpt lat="59.38055556" lon="18.035">
        <name>Bergshamra kyrka</name>
        <cmt>Kyrkobyggnader i Solna kommun. Bergshamra. Religiösa byggnader invigda 1962. Kyrkobyggnader i Stockholms
            stift.
        </cmt>
        <desc>Bergshamra kyrka</desc>
        <link href="http://sv.wikipedia.org/wiki/Bergshamra_kyrka">
            <text>Bergshamra kyrka</text>
            <type>Wikipedia</type>
        </link>
    </wpt>
    <wpt lat="59.32833333" lon="18.06472222">
        <name>Rosenbadsparken</name>
        <cmt>Norrmalm. Parker i Stockholms kommun.</cmt>
        <desc>Rosenbadsparken</desc>
        <link href="http://sv.wikipedia.org/wiki/Rosenbadsparken">
            <text>Rosenbadsparken</text>
            <type>Wikipedia</type>
        </link>
    </wpt>
    <wpt lat="59.33605833" lon="18.06704444">
        <name>Saga (biograf, Stockholm)</name>
        <cmt>Biografer i Stockholm.</cmt>
        <desc>Saga (biograf, Stockholm)</desc>
        <link href="http://sv.wikipedia.org/wiki/Saga_(biograf,_Stockholm)">
            <text>Saga (biograf, Stockholm)</text>
            <type>Wikipedia</type>
        </link>
    </wpt>
    <wpt lat="59.36277771" lon="18.0391674">
        <name>Gustav III:s paviljong</name>
        <cmt>Gustav III. Svenska kungliga slott. Hagaparken. Arkitekturåret 1792. Byggnader i Solna kommun. Slott i
            Uppland. 1792 i Sverige.
        </cmt>
        <desc>Gustav III:s paviljong</desc>
        <link href="http://sv.wikipedia.org/wiki/Gustav_III:s_paviljong">
            <text>Gustav III:s paviljong</text>
            <type>Wikipedia</type>
        </link>
    </wpt>
    <wpt lat="59.33521389" lon="18.06792778">
        <name>Stockholms lyceum</name>
        <cmt>Ej längre existerande skolor i Stockholm. Utbildningsinstitutioner bildade 1839. Ej längre existerande
            läroverk i Sverige. Utbildningsinstitutioner upplösta 1875.
        </cmt>
        <desc>Stockholms lyceum</desc>
        <link href="http://sv.wikipedia.org/wiki/Stockholms_lyceum">
            <text>Stockholms lyceum</text>
            <type>Wikipedia</type>
        </link>
    </wpt>
    <wpt lat="59.34233333" lon="18.06455556">
        <name>Shellhuset, Stockholm</name>
        <cmt>Byggnader på Östermalm.</cmt>
        <desc>Shellhuset, Stockholm</desc>
        <link href="http://sv.wikipedia.org/wiki/Shellhuset,_Stockholm">
            <text>Shellhuset, Stockholm</text>
            <type>Wikipedia</type>
        </link>
    </wpt>
    <wpt lat="59.32958889" lon="18.06538889">
        <name>Tjenstemannabanken</name>
        <cmt>Banker upplösta 1918. Ej längre existerande svenska affärsbanker. Byggnader ritade av Ernst Stenhammar.
            Banker bildade 1896. Byggnader på Norrmalm. Historiska bankbyggnader i Sverige. Nordea.
        </cmt>
        <desc>Tjenstemannabanken</desc>
        <link href="http://sv.wikipedia.org/wiki/Tjenstemannabanken">
            <text>Tjenstemannabanken</text>
            <type>Wikipedia</type>
        </link>
    </wpt>
    <wpt lat="59.33527778" lon="18.06583333">
        <name>Betelkapellet, Stockholm</name>
        <cmt>Ej längre existerande byggnader på Norrmalm. Baptism i Sverige. Ej längre existerande kyrkobyggnader i
            Stockholm.
        </cmt>
        <desc>Betelkapellet, Stockholm</desc>
        <link href="http://sv.wikipedia.org/wiki/Betelkapellet,_Stockholm">
            <text>Betelkapellet, Stockholm</text>
            <type>Wikipedia</type>
        </link>
    </wpt>
    <wpt lat="59.32583333" lon="18.07027778">
        <name>Storkyrkans tornur</name>
        <cmt>Ur. Gamla stan.</cmt>
        <desc>Storkyrkans tornur</desc>
        <link href="http://sv.wikipedia.org/wiki/Storkyrkans_tornur">
            <text>Storkyrkans tornur</text>
            <type>Wikipedia</type>
        </link>
    </wpt>
    <wpt lat="59.33251667" lon="18.06992778">
        <name>Sverigehuset</name>
        <cmt>Byggnader ritade av Sven Markelius. Byggnader på Norrmalm.</cmt>
        <desc>Sverigehuset</desc>
        <link href="http://sv.wikipedia.org/wiki/Sverigehuset">
            <text>Sverigehuset</text>
            <type>Wikipedia</type>
        </link>
    </wpt>
    <wpt lat="59.33166667" lon="18.06777778">
        <name>Eugeniakapellet</name>
        <cmt>Ej längre existerande romersk-katolska kyrkobyggnader i Sverige. Ej längre existerande byggnader på
            Norrmalm. Ej längre existerande kyrkobyggnader i Stockholm.
        </cmt>
        <desc>Eugeniakapellet</desc>
        <link href="http://sv.wikipedia.org/wiki/Eugeniakapellet">
            <text>Eugeniakapellet</text>
            <type>Wikipedia</type>
        </link>
    </wpt>
    <wpt lat="59.34222222" lon="18.06545">
        <name>Lodgatan</name>
        <cmt>Gator och torg på Östermalm.</cmt>
        <desc>Lodgatan</desc>
        <link href="http://sv.wikipedia.org/wiki/Lodgatan">
            <text>Lodgatan</text>
            <type>Wikipedia</type>
        </link>
    </wpt>
    <wpt lat="59.328575" lon="18.06532222">
        <name>Fredsgatan 9</name>
        <cmt>Byggnader ritade av Aron Johansson. Historiska sparbanksbyggnader i Sverige. Byggnader på Norrmalm.</cmt>
        <desc>Fredsgatan 9</desc>
        <link href="http://sv.wikipedia.org/wiki/Fredsgatan_9">
            <text>Fredsgatan 9</text>
            <type>Wikipedia</type>
        </link>
    </wpt>
    <wpt lat="59.33008056" lon="18.0697">
        <name>Danmarks hus</name>
        <cmt>Byggnader ritade av Gustaf Wickman. Relationer mellan Danmark och Sverige. Byggnader på Norrmalm.</cmt>
        <desc>Danmarks hus</desc>
        <link href="http://sv.wikipedia.org/wiki/Danmarks_hus">
            <text>Danmarks hus</text>
            <type>Wikipedia</type>
        </link>
    </wpt>
    <wpt lat="59.36399841" lon="18.05999947">
        <name>Skära villan</name>
        <cmt>Norra Djurgården. Byggnader vid Stockholms universitet.</cmt>
        <desc>Skära villan</desc>
        <link href="http://sv.wikipedia.org/wiki/Skära_villan">
            <text>Skära villan</text>
            <type>Wikipedia</type>
        </link>
    </wpt>
    <wpt lat="59.33843889" lon="18.05877778">
        <name>Adolf Fredriks församling</name>
        <cmt>Vasastan. Norrmalm. Församlingar i Stockholms kommun.</cmt>
        <desc>Adolf Fredriks församling</desc>
        <link href="http://sv.wikipedia.org/wiki/Adolf_Fredriks_församling">
            <text>Adolf Fredriks församling</text>
            <type>Wikipedia</type>
        </link>
    </wpt>
    <wpt lat="59.38194444" lon="18.02583333">
        <name>Kungshamra</name>
        <cmt>Stiftelsen Stockholms Studentbostäder. Bergshamra.</cmt>
        <desc>Kungshamra</desc>
        <link href="http://sv.wikipedia.org/wiki/Kungshamra">
            <text>Kungshamra</text>
            <type>Wikipedia</type>
        </link>
    </wpt>
    <wpt lat="59.32966667" lon="18.06833333">
        <name>Kastenhof</name>
        <cmt>Ej längre existerande byggnader på Norrmalm.</cmt>
        <desc>Kastenhof</desc>
        <link href="http://sv.wikipedia.org/wiki/Kastenhof">
            <text>Kastenhof</text>
            <type>Wikipedia</type>
        </link>
    </wpt>
    <wpt lat="59.34916667" lon="18.0575">
        <name>Ingemarshof</name>
        <cmt>Malmgårdar i Stockholm. Ej längre existerande byggnader i Vasastan.</cmt>
        <desc>Ingemarshof</desc>
        <link href="http://sv.wikipedia.org/wiki/Ingemarshof">
            <text>Ingemarshof</text>
            <type>Wikipedia</type>
        </link>
    </wpt>
    <wpt lat="59.32985" lon="18.06885">
        <name>Gustav Adolf torg 18</name>
        <cmt>Byggnader ritade av Isak Gustaf Clason. Byggnader på Norrmalm. Historiska bankbyggnader i Sverige.</cmt>
        <desc>Gustav Adolf torg 18</desc>
        <link href="http://sv.wikipedia.org/wiki/Gustav_Adolf_torg_18">
            <text>Gustav Adolf torg 18</text>
            <type>Wikipedia</type>
        </link>
    </wpt>
    <wpt lat="59.36618333" lon="18.03110833">
        <name>Haga Trädgård</name>
        <cmt>Museer i Stockholms län.</cmt>
        <desc>Haga Trädgård</desc>
        <link href="http://sv.wikipedia.org/wiki/Haga_Trädgård">
            <text>Haga Trädgård</text>
            <type>Wikipedia</type>
        </link>
    </wpt>
    <wpt lat="59.36611111" lon="18.03083333">
        <name>Fjärilshuset</name>
        <cmt>Byggnader i Solna kommun. Hagaparken. Museer i Stockholms län.</cmt>
        <desc>Fjärilshuset</desc>
        <link href="http://sv.wikipedia.org/wiki/Fjärilshuset">
            <text>Fjärilshuset</text>
            <type>Wikipedia</type>
        </link>
    </wpt>
    <wpt lat="59.33038889" lon="18.06969444">
        <name>Jakobsgatan</name>
        <cmt>Gator och torg på Norrmalm.</cmt>
        <desc>Jakobsgatan</desc>
        <link href="http://sv.wikipedia.org/wiki/Jakobsgatan">
            <text>Jakobsgatan</text>
            <type>Wikipedia</type>
        </link>
    </wpt>
    <wpt lat="59.33361053" lon="18.06444359">
        <name>MKFC Stockholms folkhögskola</name>
        <cmt>Lilla Alby. Utbildning i Stockholm. Folkhögskolor i Sverige.</cmt>
        <desc>MKFC Stockholms folkhögskola</desc>
        <link href="http://sv.wikipedia.org/wiki/MKFC_Stockholms_folkhögskola">
            <text>MKFC Stockholms folkhögskola</text>
            <type>Wikipedia</type>
        </link>
    </wpt>
    <wpt lat="59.33277778" lon="18.07">
        <name>Sparreska palatset, Hamngatan</name>
        <cmt>Byggnader ritade av Nicodemus Tessin d.ä.. Privatpalats i Stockholm. Byggnader avbildade i Suecian. Ej
            längre existerande byggnader på Norrmalm.
        </cmt>
        <desc>Sparreska palatset, Hamngatan</desc>
        <link href="http://sv.wikipedia.org/wiki/Sparreska_palatset,_Hamngatan">
            <text>Sparreska palatset, Hamngatan</text>
            <type>Wikipedia</type>
        </link>
    </wpt>
    <wpt lat="59.32868889" lon="18.06433889">
        <name>Konstakademiens hus</name>
        <cmt>Kungliga Akademien för de fria konsterna. Byggnader på Norrmalm. Palats i Stockholm. Byggnader ritade av
            Nicodemus Tessin d.ä.. Byggnader ritade av Erik Lallerstedt. Byggnader ritade av Fredrik Blom.
        </cmt>
        <desc>Konstakademiens hus</desc>
        <link href="http://sv.wikipedia.org/wiki/Konstakademiens_hus">
            <text>Konstakademiens hus</text>
            <type>Wikipedia</type>
        </link>
    </wpt>
    <wpt lat="59.33169444" lon="18.06536111">
        <name>Beridarebansgatan</name>
        <cmt>Gator och torg på Norrmalm.</cmt>
        <desc>Beridarebansgatan</desc>
        <link href="http://sv.wikipedia.org/wiki/Beridarebansgatan">
            <text>Beridarebansgatan</text>
            <type>Wikipedia</type>
        </link>
    </wpt>
    <wpt lat="59.34014444" lon="18.05551667">
        <name>Schefflerska palatset</name>
        <cmt>Byggnader i Vasastan. Palats i Stockholm. Malmgårdar i Stockholm. Byggnadsminnen i Stockholms kommun.</cmt>
        <desc>Schefflerska palatset</desc>
        <link href="http://sv.wikipedia.org/wiki/Schefflerska_palatset">
            <text>Schefflerska palatset</text>
            <type>Wikipedia</type>
        </link>
    </wpt>
    <wpt lat="59.37222222" lon="18.05388889">
        <name>Ekhagen, Stockholm</name>
        <cmt>Norra Djurgården. Funktionalistisk arkitektur.</cmt>
        <desc>Ekhagen, Stockholm</desc>
        <link href="http://sv.wikipedia.org/wiki/Ekhagen,_Stockholm">
            <text>Ekhagen, Stockholm</text>
            <type>Wikipedia</type>
        </link>
    </wpt>
    <wpt lat="59.34494167" lon="18.04843333">
        <name>Norrmalmskyrkan</name>
        <cmt>Svenska equmeniaförsamlingar. Byggnader i Vasastan. Kyrkobyggnader i Stockholms innerstad. Religiösa
            byggnader invigda 1964.
        </cmt>
        <desc>Norrmalmskyrkan</desc>
        <link href="http://sv.wikipedia.org/wiki/Norrmalmskyrkan">
            <text>Norrmalmskyrkan</text>
            <type>Wikipedia</type>
        </link>
    </wpt>
    <wpt lat="59.36344444" lon="18.05977778">
        <name>Experimentalfältet</name>
        <cmt>Norra Djurgården. Lantbruksvetenskap. Byggnadsminnen i Stockholms kommun. Jordbruksanläggningar. Ej
            uppdaterad-samtliga. Ej uppdaterad 2011-09. Agrarhistoria.
        </cmt>
        <desc>Experimentalfältet</desc>
        <link href="http://sv.wikipedia.org/wiki/Experimentalfältet">
            <text>Experimentalfältet</text>
            <type>Wikipedia</type>
        </link>
    </wpt>
    <wpt lat="59.34027778" lon="18.05444444">
        <name>Kungliga Skogs- och Lantbruksakademien</name>
        <cmt>Svenska kungliga akademier. Lantbruksvetenskap. Kungliga skogs- och lantbruksakademien. Organisationer
            bildade 1811. Myndigheter i Stockholm. Myndigheter under Landsbygdsdepartementet.
        </cmt>
        <desc>Kungliga Skogs- och Lantbruksakademien</desc>
        <link href="http://sv.wikipedia.org/wiki/Kungliga_Skogs-_och_Lantbruksakademien">
            <text>Kungliga Skogs- och Lantbruksakademien</text>
            <type>Wikipedia</type>
        </link>
    </wpt>
    <wpt lat="59.33724976" lon="18.06611061">
        <name>Johannesgatan</name>
        <cmt>Gator och torg på Norrmalm.</cmt>
        <desc>Johannesgatan</desc>
        <link href="http://sv.wikipedia.org/wiki/Johannesgatan">
            <text>Johannesgatan</text>
            <type>Wikipedia</type>
        </link>
    </wpt>
    <wpt lat="59.33486389" lon="18.06217222">
        <name>Skyddsrummet Hötorget</name>
        <cmt>Norrmalm. Civilt försvar. Skyddsrum i Stockholm. Parkering.</cmt>
        <desc>Skyddsrummet Hötorget</desc>
        <link href="http://sv.wikipedia.org/wiki/Skyddsrummet_Hötorget">
            <text>Skyddsrummet Hötorget</text>
            <type>Wikipedia</type>
        </link>
    </wpt>
    <wpt lat="59.32916667" lon="18.06777778">
        <name>Arvfurstens palats</name>
        <cmt>1794 i Sverige. Byggnader på Norrmalm. Palats i Stockholm. Arkitekturåret 1794. Avvecklade fideikommiss.
            Sveriges utrikespolitik.
        </cmt>
        <desc>Arvfurstens palats</desc>
        <link href="http://sv.wikipedia.org/wiki/Arvfurstens_palats">
            <text>Arvfurstens palats</text>
            <type>Wikipedia</type>
        </link>
    </wpt>
    <wpt lat="59.33294444" lon="18.06910833">
        <name>Anna Lindh-mordet</name>
        <cmt>Mord i Stockholm. Norrmalm. Mord och mordförsök 2003. 2003 i Sverige.</cmt>
        <desc>Anna Lindh-mordet</desc>
        <link href="http://sv.wikipedia.org/wiki/Anna_Lindh-mordet">
            <text>Anna Lindh-mordet</text>
            <type>Wikipedia</type>
        </link>
    </wpt>
    <wpt lat="59.32951111" lon="18.06746667">
        <name>Gustav Horns palats</name>
        <cmt>Byggnader på Norrmalm. Privatpalats i Stockholm. Historiska bankbyggnader i Sverige.</cmt>
        <desc>Gustav Horns palats</desc>
        <link href="http://sv.wikipedia.org/wiki/Gustav_Horns_palats">
            <text>Gustav Horns palats</text>
            <type>Wikipedia</type>
        </link>
    </wpt>
    <wpt lat="59.35166667" lon="18.04333333">
        <name>Drottning Kristinas lövsal</name>
        <cmt>Solna kommun. Enskilda träd i Stockholms län. Drottning Kristina.</cmt>
        <desc>Drottning Kristinas lövsal</desc>
        <link href="http://sv.wikipedia.org/wiki/Drottning_Kristinas_lövsal">
            <text>Drottning Kristinas lövsal</text>
            <type>Wikipedia</type>
        </link>
    </wpt>
    <wpt lat="59.33736111" lon="18.06991667">
        <name>David Bagares gata</name>
        <cmt>Gator och torg på Norrmalm.</cmt>
        <desc>David Bagares gata</desc>
        <link href="http://sv.wikipedia.org/wiki/David_Bagares_gata">
            <text>David Bagares gata</text>
            <type>Wikipedia</type>
        </link>
    </wpt>
    <wpt lat="59.33058333" lon="18.06613889">
        <name>Herkulesgatan</name>
        <cmt>Gator och torg på Norrmalm.</cmt>
        <desc>Herkulesgatan</desc>
        <link href="http://sv.wikipedia.org/wiki/Herkulesgatan">
            <text>Herkulesgatan</text>
            <type>Wikipedia</type>
        </link>
    </wpt>
    <wpt lat="59.36367222" lon="18.05799444">
        <name>Allhuset, Stockholms universitet</name>
        <cmt>Ralph Erskine. Byggnader på Östermalm. Byggnader vid Stockholms universitet.</cmt>
        <desc>Allhuset, Stockholms universitet</desc>
        <link href="http://sv.wikipedia.org/wiki/Allhuset,_Stockholms_universitet">
            <text>Allhuset, Stockholms universitet</text>
            <type>Wikipedia</type>
        </link>
    </wpt>
    <wpt lat="59.32720278" lon="18.07118056">
        <name>Festvåningen</name>
        <cmt>Alla sidor föreslagna att flyttas. Sidor föreslagna att flyttas 2015-12. Stockholms slott.</cmt>
        <desc>Festvåningen</desc>
        <link href="http://sv.wikipedia.org/wiki/Festvåningen">
            <text>Festvåningen</text>
            <type>Wikipedia</type>
        </link>
    </wpt>
    <wpt lat="59.33111111" lon="18.06638889">
        <name>Brunkebergstorg</name>
        <cmt>Samtliga utgångna bäst före. Gator och torg på Norrmalm. Utgångna bäst före 2012-12. Torg i Sverige.</cmt>
        <desc>Brunkebergstorg</desc>
        <link href="http://sv.wikipedia.org/wiki/Brunkebergstorg">
            <text>Brunkebergstorg</text>
            <type>Wikipedia</type>
        </link>
    </wpt>
    <wpt lat="59.34261111" lon="18.06739167">
        <name>Hammargatan</name>
        <cmt>Gator och torg på Östermalm.</cmt>
        <desc>Hammargatan</desc>
        <link href="http://sv.wikipedia.org/wiki/Hammargatan">
            <text>Hammargatan</text>
            <type>Wikipedia</type>
        </link>
    </wpt>
    <wpt lat="59.38333333" lon="18.04055556">
        <name>Stocksundsbron (vägtrafik)</name>
        <cmt>Solna kommun. Broar i Sverige. Danderyds kommun.</cmt>
        <desc>Stocksundsbron (vägtrafik)</desc>
        <link href="http://sv.wikipedia.org/wiki/Stocksundsbron_(vägtrafik)">
            <text>Stocksundsbron (vägtrafik)</text>
            <type>Wikipedia</type>
        </link>
    </wpt>
    <wpt lat="59.32720278" lon="18.07118056">
        <name>Bernadottevåningen</name>
        <cmt>Stockholms slott.</cmt>
        <desc>Bernadottevåningen</desc>
        <link href="http://sv.wikipedia.org/wiki/Bernadottevåningen">
            <text>Bernadottevåningen</text>
            <type>Wikipedia</type>
        </link>
    </wpt>
    <wpt lat="59.36527778" lon="18.05055556">
        <name>Universitetet (Roslagsbanan)</name>
        <cmt>Sidor föreslagna att flyttas 2015-02. Alla sidor föreslagna att flyttas. Campus vid Stockholms universitet.
            Järnvägsstationer i Stockholms län.
        </cmt>
        <desc>Universitetet (Roslagsbanan)</desc>
        <link href="http://sv.wikipedia.org/wiki/Universitetet_(Roslagsbanan)">
            <text>Universitetet (Roslagsbanan)</text>
            <type>Wikipedia</type>
        </link>
    </wpt>
    <wpt lat="59.351024" lon="18.03925">
        <name>Eugeniatunneln</name>
        <cmt>Solna kommun. Motorvägar i Sverige. Vägtunnlar i Stockholm.</cmt>
        <desc>Eugeniatunneln</desc>
        <link href="http://sv.wikipedia.org/wiki/Eugeniatunneln">
            <text>Eugeniatunneln</text>
            <type>Wikipedia</type>
        </link>
    </wpt>
    <wpt lat="59.34388889" lon="18.05416667">
        <name>Asylet för Pauvres Honteux</name>
        <cmt>Ej längre existerande byggnader i Vasastan. Äldreomsorg.</cmt>
        <desc>Asylet för Pauvres Honteux</desc>
        <link href="http://sv.wikipedia.org/wiki/Asylet_för_Pauvres_Honteux">
            <text>Asylet för Pauvres Honteux</text>
            <type>Wikipedia</type>
        </link>
    </wpt>
    <wpt lat="59.3405571" lon="18.05555534">
        <name>Kungstensgymnasiet</name>
        <cmt>Gymnasieskolor i Stockholm.</cmt>
        <desc>Kungstensgymnasiet</desc>
        <link href="http://sv.wikipedia.org/wiki/Kungstensgymnasiet">
            <text>Kungstensgymnasiet</text>
            <type>Wikipedia</type>
        </link>
    </wpt>
    <wpt lat="59.33541667" lon="18.06333333">
        <name>Hötorget (tunnelbanestation)</name>
        <cmt>Norrmalm. Stockholms tunnelbanestationer. Järnvägsstationer invigda 1952.</cmt>
        <desc>Hötorget (tunnelbanestation)</desc>
        <link href="http://sv.wikipedia.org/wiki/Hötorget_(tunnelbanestation)">
            <text>Hötorget (tunnelbanestation)</text>
            <type>Wikipedia</type>
        </link>
    </wpt>
    <wpt lat="59.3275" lon="18.07055556">
        <name>Slottskajen</name>
        <cmt>Gator och torg i Gamla stan.</cmt>
        <desc>Slottskajen</desc>
        <link href="http://sv.wikipedia.org/wiki/Slottskajen">
            <text>Slottskajen</text>
            <type>Wikipedia</type>
        </link>
    </wpt>
    <wpt lat="59.32583333" lon="18.07138889">
        <name>Slottsbranden 1697</name>
        <cmt>Sverige under stormaktstiden. Gamla stans historia. Bränder i Stockholm. 1697 i Sverige. Bränder 1697.
        </cmt>
        <desc>Slottsbranden 1697</desc>
        <link href="http://sv.wikipedia.org/wiki/Slottsbranden_1697">
            <text>Slottsbranden 1697</text>
            <type>Wikipedia</type>
        </link>
    </wpt>
    <wpt lat="59.34366667" lon="18.06367222">
        <name>Ellen Keys park</name>
        <cmt>Parker i Stockholms kommun. Östermalm.</cmt>
        <desc>Ellen Keys park</desc>
        <link href="http://sv.wikipedia.org/wiki/Ellen_Keys_park">
            <text>Ellen Keys park</text>
            <type>Wikipedia</type>
        </link>
    </wpt>
    <wpt lat="59.32602692" lon="18.06808281">
        <name>Brantingtorget</name>
        <cmt>Gator och torg i Gamla stan.</cmt>
        <desc>Brantingtorget</desc>
        <link href="http://sv.wikipedia.org/wiki/Brantingtorget">
            <text>Brantingtorget</text>
            <type>Wikipedia</type>
        </link>
    </wpt>
    <wpt lat="59.34119415" lon="18.05758286">
        <name>Bonnier Tidskrifter</name>
        <cmt>Företag bildade 1906. Svenska tidningsförlag. Svenska bokförlag. Bonnierkoncernen. Svenska serieförlag.
        </cmt>
        <desc>Bonnier Tidskrifter</desc>
        <link href="http://sv.wikipedia.org/wiki/Bonnier_Tidskrifter">
            <text>Bonnier Tidskrifter</text>
            <type>Wikipedia</type>
        </link>
    </wpt>
    <wpt lat="59.35027695" lon="18.03944397">
        <name>Traffic island</name>
        <cmt>Gatukonst. Kultur och konst i Stockholm.</cmt>
        <desc>Traffic island</desc>
        <link href="http://sv.wikipedia.org/wiki/Traffic_island">
            <text>Traffic island</text>
            <type>Wikipedia</type>
        </link>
    </wpt>
    <wpt lat="59.34749985" lon="18.05472183">
        <name>Stefanskyrkan, Stockholm</name>
        <cmt>Byggnader i Vasastan. Kyrkobyggnader i Stockholms innerstad. Religiösa byggnader invigda 1904.
            Kyrkobyggnader i Stockholms stift.
        </cmt>
        <desc>Stefanskyrkan, Stockholm</desc>
        <link href="http://sv.wikipedia.org/wiki/Stefanskyrkan,_Stockholm">
            <text>Stefanskyrkan, Stockholm</text>
            <type>Wikipedia</type>
        </link>
    </wpt>
    <wpt lat="59.33486111" lon="18.06222222">
        <name>Hötorget</name>
        <cmt>Gator och torg på Norrmalm. Stockholms historia.</cmt>
        <desc>Hötorget</desc>
        <link href="http://sv.wikipedia.org/wiki/Hötorget">
            <text>Hötorget</text>
            <type>Wikipedia</type>
        </link>
    </wpt>
    <wpt lat="59.39388889" lon="18.03388889">
        <name>Villa Markelius, Danderyd</name>
        <cmt>Villor i Sverige. Byggnader ritade av Sven Markelius. Byggnader i Danderyds kommun.</cmt>
        <desc>Villa Markelius, Danderyd</desc>
        <link href="http://sv.wikipedia.org/wiki/Villa_Markelius,_Danderyd">
            <text>Villa Markelius, Danderyd</text>
            <type>Wikipedia</type>
        </link>
    </wpt>
    <wpt lat="59.33705833" lon="18.06752222">
        <name>Nalen</name>
        <cmt>Nöjeslokaler i Stockholm. Konsertscener i Stockholm. Byggnader på Norrmalm.</cmt>
        <desc>Nalen</desc>
        <link href="http://sv.wikipedia.org/wiki/Nalen">
            <text>Nalen</text>
            <type>Wikipedia</type>
        </link>
    </wpt>
    <wpt lat="59.33801667" lon="18.06375556">
        <name>S:t Johannes församling, Stockholms stift</name>
        <cmt>Vasastan. Norrmalm. Församlingar i Stockholms kommun.</cmt>
        <desc>S:t Johannes församling, Stockholms stift</desc>
        <link href="http://sv.wikipedia.org/wiki/S:t_Johannes_församling,_Stockholms_stift">
            <text>S:t Johannes församling, Stockholms stift</text>
            <type>Wikipedia</type>
        </link>
    </wpt>
    <wpt lat="59.39833333" lon="18.03666667">
        <name>Mörby centrum (tunnelbanestation)</name>
        <cmt>Danderyds kommun. Järnvägsstationer invigda 1978. Lokaltrafikdepåer i Stockholm. Stockholms
            tunnelbanestationer.
        </cmt>
        <desc>Mörby centrum (tunnelbanestation)</desc>
        <link href="http://sv.wikipedia.org/wiki/Mörby_centrum_(tunnelbanestation)">
            <text>Mörby centrum (tunnelbanestation)</text>
            <type>Wikipedia</type>
        </link>
    </wpt>
    <wpt lat="59.33444444" lon="18.0625">
        <name>Sergelteatern</name>
        <cmt>Norrmalm. Biografer i Stockholm.</cmt>
        <desc>Sergelteatern</desc>
        <link href="http://sv.wikipedia.org/wiki/Sergelteatern">
            <text>Sergelteatern</text>
            <type>Wikipedia</type>
        </link>
    </wpt>
    <wpt lat="59.34777778" lon="18.05305556">
        <name>Vanadisbadet</name>
        <cmt>Sportanläggningar i Stockholms län. Byggnader i Vasastan.</cmt>
        <desc>Vanadisbadet</desc>
        <link href="http://sv.wikipedia.org/wiki/Vanadisbadet">
            <text>Vanadisbadet</text>
            <type>Wikipedia</type>
        </link>
    </wpt>
    <wpt lat="59.34018611" lon="18.05619722">
        <name>Spökparken</name>
        <cmt>Parker i Stockholms kommun. Byggnadsminnen i Stockholms kommun. Vasastan.</cmt>
        <desc>Spökparken</desc>
        <link href="http://sv.wikipedia.org/wiki/Spökparken">
            <text>Spökparken</text>
            <type>Wikipedia</type>
        </link>
    </wpt>
    <wpt lat="59.38333333" lon="18.04333333">
        <name>Sikreno</name>
        <cmt>Stocksund.</cmt>
        <desc>Sikreno</desc>
        <link href="http://sv.wikipedia.org/wiki/Sikreno">
            <text>Sikreno</text>
            <type>Wikipedia</type>
        </link>
    </wpt>
    <wpt lat="59.37361111" lon="18.03472222">
        <name>Cadiers odlingar</name>
        <cmt>Bergshamra.</cmt>
        <desc>Cadiers odlingar</desc>
        <link href="http://sv.wikipedia.org/wiki/Cadiers_odlingar">
            <text>Cadiers odlingar</text>
            <type>Wikipedia</type>
        </link>
    </wpt>
    <wpt lat="59.32511111" lon="18.06933333">
        <name>Jakob Sauers hus</name>
        <cmt>Byggnader i Gamla stan.</cmt>
        <desc>Jakob Sauers hus</desc>
        <link href="http://sv.wikipedia.org/wiki/Jakob_Sauers_hus">
            <text>Jakob Sauers hus</text>
            <type>Wikipedia</type>
        </link>
    </wpt>
    <wpt lat="59.32522202" lon="18.0692215">
        <name>Palmstedts hus</name>
        <cmt>Byggnader i Gamla stan.</cmt>
        <desc>Palmstedts hus</desc>
        <link href="http://sv.wikipedia.org/wiki/Palmstedts_hus">
            <text>Palmstedts hus</text>
            <type>Wikipedia</type>
        </link>
    </wpt>
    <wpt lat="59.33798056" lon="18.06832222">
        <name>Pernbys målarskola</name>
        <cmt>Utbildning i Stockholm. Konstskolor i Sverige.</cmt>
        <desc>Pernbys målarskola</desc>
        <link href="http://sv.wikipedia.org/wiki/Pernbys_målarskola">
            <text>Pernbys målarskola</text>
            <type>Wikipedia</type>
        </link>
    </wpt>
    <wpt lat="59.38111111" lon="18.04388889">
        <name>Villa Alnäs, Bergshamra</name>
        <cmt>Byggnader i Solna kommun. Bergshamra.</cmt>
        <desc>Villa Alnäs, Bergshamra</desc>
        <link href="http://sv.wikipedia.org/wiki/Villa_Alnäs,_Bergshamra">
            <text>Villa Alnäs, Bergshamra</text>
            <type>Wikipedia</type>
        </link>
    </wpt>
    <wpt lat="59.332" lon="18.06341667">
        <name>Hotel Regina</name>
        <cmt>Historiska hotell i Stockholm. Företag bildade 1909. Nöjen i Stockholm. Ej längre existerande byggnader på
            Norrmalm.
        </cmt>
        <desc>Hotel Regina</desc>
        <link href="http://sv.wikipedia.org/wiki/Hotel_Regina">
            <text>Hotel Regina</text>
            <type>Wikipedia</type>
        </link>
    </wpt>
    <wpt lat="59.34468889" lon="18.05080556">
        <name>Hamburgerbryggeriet</name>
        <cmt>Ej längre existerande svenska bryggeriföretag. Anläggningar i Sverige. Industriföretag i Stockholm.
            Byggnader i Vasastan. Kvarter i Stockholm. Företag upplösta 1970. Företag bildade 1869.
        </cmt>
        <desc>Hamburgerbryggeriet</desc>
        <link href="http://sv.wikipedia.org/wiki/Hamburgerbryggeriet">
            <text>Hamburgerbryggeriet</text>
            <type>Wikipedia</type>
        </link>
    </wpt>
    <wpt lat="59.38333333" lon="18.04055556">
        <name>Stocksundsbron (Roslagsbanan)</name>
        <cmt>Järnvägsbroar i Sverige. Solna kommun. Danderyds kommun.</cmt>
        <desc>Stocksundsbron (Roslagsbanan)</desc>
        <link href="http://sv.wikipedia.org/wiki/Stocksundsbron_(Roslagsbanan)">
            <text>Stocksundsbron (Roslagsbanan)</text>
            <type>Wikipedia</type>
        </link>
    </wpt>
    <wpt lat="59.34109444" lon="18.06570833">
        <name>Fordon (skulptur)</name>
        <cmt>Skulpturer på Östermalm. Stålskulpturer.</cmt>
        <desc>Fordon (skulptur)</desc>
        <link href="http://sv.wikipedia.org/wiki/Fordon_(skulptur)">
            <text>Fordon (skulptur)</text>
            <type>Wikipedia</type>
        </link>
    </wpt>
    <wpt lat="59.36277771" lon="18.06083298">
        <name>Södra huset, Stockholms universitet</name>
        <cmt>Ralph Erskine. Byggnader på Östermalm. Byggnader vid Stockholms universitet.</cmt>
        <desc>Södra huset, Stockholms universitet</desc>
        <link href="http://sv.wikipedia.org/wiki/Södra_huset,_Stockholms_universitet">
            <text>Södra huset, Stockholms universitet</text>
            <type>Wikipedia</type>
        </link>
    </wpt>
    <wpt lat="59.34361111" lon="18.06472222">
        <name>Stockholms borgarskola</name>
        <cmt>Ej längre existerande skolor i Stockholm. Utbildningsinstitutioner upplösta 1971. Östermalm. Byggnader på
            Östermalm. Ej längre existerande skolor i Sverige. Utbildning i Stockholm. Utbildningsinstitutioner bildade
            1836.
        </cmt>
        <desc>Stockholms borgarskola</desc>
        <link href="http://sv.wikipedia.org/wiki/Stockholms_borgarskola">
            <text>Stockholms borgarskola</text>
            <type>Wikipedia</type>
        </link>
    </wpt>
    <wpt lat="59.40416667" lon="18.03725">
        <name>Berga gård, Danderyd</name>
        <cmt>Byggnader i Danderyds kommun.</cmt>
        <desc>Berga gård, Danderyd</desc>
        <link href="http://sv.wikipedia.org/wiki/Berga_gård,_Danderyd">
            <text>Berga gård, Danderyd</text>
            <type>Wikipedia</type>
        </link>
    </wpt>
    <wpt lat="59.36333333" lon="18.06055556">
        <name>Stockholms universitetsbibliotek</name>
        <cmt>Stockholms universitet. Bibliotek i Stockholm. Universitetsbibliotek. Ralph Erskine. Byggnader vid
            Stockholms universitet.
        </cmt>
        <desc>Stockholms universitetsbibliotek</desc>
        <link href="http://sv.wikipedia.org/wiki/Stockholms_universitetsbibliotek">
            <text>Stockholms universitetsbibliotek</text>
            <type>Wikipedia</type>
        </link>
    </wpt>
    <wpt lat="59.33394623" lon="18.07108307">
        <name>Byggnadsföreningens hus</name>
        <cmt>Sven Markelius. Byggnader på Norrmalm.</cmt>
        <desc>Byggnadsföreningens hus</desc>
        <link href="http://sv.wikipedia.org/wiki/Byggnadsföreningens_hus">
            <text>Byggnadsföreningens hus</text>
            <type>Wikipedia</type>
        </link>
    </wpt>