<?xml version="1.0" encoding="UTF-8"?>
<gpx xmlns:xsi="http://www.w3.org/2001/XMLSchema-instance" xmlns="http://www.topografix.com/GPX/1/1"
     xsi:schemaLocation="http://www.topografix.com/GPX/1/1 http://www.topografix.com/GPX/1/1/gpx.xsd" version="1.1"
     creator="Carl Johan Rehn">
    <metadata>
        <name>Södra Lidingöstråket</name>
        <desc>GPX-koordinater för Wikipedia-artiklar.
        </desc>
        <author>
            <name>Carl Johan Rehn</name>
            <email id="care02" domain="gmail.com"/>
            <link href="https://github.com/carljohanrehn/hikepy-gpx"></link>
        </author>
        <copyright author="Carl Johan Rehn">
            <year>2016</year>
            <license>http://opendatacommons.org/licenses/odbl/1.0/</license>
        </copyright>
        <link href="http://www.openstreetmap.org/copyright/">
            <text>(c) OpenStreetMap contributors</text>
            <type>OpenStreetMap Copyright and License</type>
        </link>
    </metadata>
    <wpt lat="59.34972222" lon="18.20625">
        <name>Breviks kyrka, Lidingö</name>
        <cmt>Kyrkobyggnader i Lidingö kommun. Kyrkobyggnader i Stockholms stift. Religiösa byggnader invigda 1937.</cmt>
        <desc>Breviks kyrka, Lidingö</desc>
        <link href="http://sv.wikipedia.org/wiki/Breviks_kyrka,_Lidingö">
            <text>Breviks kyrka, Lidingö</text>
            <type>Wikipedia</type>
        </link>
    </wpt>
    <wpt lat="59.33535004" lon="18.08844185">
        <name>Oxenstiernska malmgården</name>
        <cmt>Malmgårdar i Stockholm. Byggnader på Östermalm.</cmt>
        <desc>Oxenstiernska malmgården</desc>
        <link href="http://sv.wikipedia.org/wiki/Oxenstiernska_malmgården">
            <text>Oxenstiernska malmgården</text>
            <type>Wikipedia</type>
        </link>
    </wpt>
    <wpt lat="59.34556961" lon="18.18103027">
        <name>Apelsinvillan</name>
        <cmt>Byggnader i Lidingö kommun. Byggnadsminnen i Stockholms län.</cmt>
        <desc>Apelsinvillan</desc>
        <link href="http://sv.wikipedia.org/wiki/Apelsinvillan">
            <text>Apelsinvillan</text>
            <type>Wikipedia</type>
        </link>
    </wpt>
    <wpt lat="59.32666667" lon="18.09666667">
        <name>Jägarhyddan</name>
        <cmt>1897 i Sverige. Villor på Djurgården. Arkitekturåret 1897.</cmt>
        <desc>Jägarhyddan</desc>
        <link href="http://sv.wikipedia.org/wiki/Jägarhyddan">
            <text>Jägarhyddan</text>
            <type>Wikipedia</type>
        </link>
    </wpt>
    <wpt lat="59.34133333" lon="18.09808333">
        <name>Mås (skulptur)</name>
        <cmt>Skulpturer i Stockholm.</cmt>
        <desc>Mås (skulptur)</desc>
        <link href="http://sv.wikipedia.org/wiki/Mås_(skulptur)">
            <text>Mås (skulptur)</text>
            <type>Wikipedia</type>
        </link>
    </wpt>
    <wpt lat="59.33583333" lon="18.10111111">
        <name>TV-eken</name>
        <cmt>Enskilda träd i Stockholm. Östermalm. Demonstrationer.</cmt>
        <desc>TV-eken</desc>
        <link href="http://sv.wikipedia.org/wiki/TV-eken">
            <text>TV-eken</text>
            <type>Wikipedia</type>
        </link>
    </wpt>
    <wpt lat="59.32536111" lon="18.06999722">
        <name>Cornelis Vreeswijkmuseet</name>
        <cmt>Ej längre existerande museer i Stockholm. Museer invigda 2000. Museer nedlagda 2011.</cmt>
        <desc>Cornelis Vreeswijkmuseet</desc>
        <link href="http://sv.wikipedia.org/wiki/Cornelis_Vreeswijkmuseet">
            <text>Cornelis Vreeswijkmuseet</text>
            <type>Wikipedia</type>
        </link>
    </wpt>
    <wpt lat="59.32575" lon="18.06975">
        <name>Trångsund, Stockholm</name>
        <cmt>Gator och torg i Gamla stan.</cmt>
        <desc>Trångsund, Stockholm</desc>
        <link href="http://sv.wikipedia.org/wiki/Trångsund,_Stockholm">
            <text>Trångsund, Stockholm</text>
            <type>Wikipedia</type>
        </link>
    </wpt>
    <wpt lat="59.33188889" lon="18.08316667">
        <name>Grevgatan</name>
        <cmt>Gator och torg på Östermalm.</cmt>
        <desc>Grevgatan</desc>
        <link href="http://sv.wikipedia.org/wiki/Grevgatan">
            <text>Grevgatan</text>
            <type>Wikipedia</type>
        </link>
    </wpt>
    <wpt lat="59.32722222" lon="18.09777778">
        <name>Allmänna konst- och industriutställningen</name>
        <cmt>Vetenskapsåret 1897. Djurgården. 1897 i Sverige. Kultur och konst i Stockholm. Konståret 1897.
            Utställningar i Sverige. Stockholms historia.
        </cmt>
        <desc>Allmänna konst- och industriutställningen</desc>
        <link href="http://sv.wikipedia.org/wiki/Allmänna_konst-_och_industriutställningen">
            <text>Allmänna konst- och industriutställningen</text>
            <type>Wikipedia</type>
        </link>
    </wpt>
    <wpt lat="59.33277778" lon="18.085">
        <name>Makedoniens ambassad i Stockholm</name>
        <cmt>Relationer mellan Makedonien och Sverige. Byggnader på Östermalm. Ambassader i Stockholm. Bildanden 1994.
        </cmt>
        <desc>Makedoniens ambassad i Stockholm</desc>
        <link href="http://sv.wikipedia.org/wiki/Makedoniens_ambassad_i_Stockholm">
            <text>Makedoniens ambassad i Stockholm</text>
            <type>Wikipedia</type>
        </link>
    </wpt>
    <wpt lat="59.33222198" lon="18.08638954">
        <name>Grotta Azurra</name>
        <cmt>Nedlagda nattklubbar i Stockholm.</cmt>
        <desc>Grotta Azurra</desc>
        <link href="http://sv.wikipedia.org/wiki/Grotta_Azurra">
            <text>Grotta Azurra</text>
            <type>Wikipedia</type>
        </link>
    </wpt>
    <wpt lat="59.33208889" lon="18.07235">
        <name>Barclayska huset</name>
        <cmt>Privatpalats i Stockholm. Ej längre existerande byggnader på Norrmalm. Kungsträdgårdsgatan.</cmt>
        <desc>Barclayska huset</desc>
        <link href="http://sv.wikipedia.org/wiki/Barclayska_huset">
            <text>Barclayska huset</text>
            <type>Wikipedia</type>
        </link>
    </wpt>
    <wpt lat="59.33166667" lon="18.07222222">
        <name>Sankta Eugenia katolska församling</name>
        <cmt>Katolska församlingar i Sverige. Kyrkobyggnader i Stockholms innerstad. Kristendom i Stockholm.
            Kungsträdgårdsgatan. Jesuitorden.
        </cmt>
        <desc>Sankta Eugenia katolska församling</desc>
        <link href="http://sv.wikipedia.org/wiki/Sankta_Eugenia_katolska_församling">
            <text>Sankta Eugenia katolska församling</text>
            <type>Wikipedia</type>
        </link>
    </wpt>
    <wpt lat="59.33611111" lon="18.09138889">
        <name>Bromska palatset</name>
        <cmt>Privatpalats i Stockholm. Byggnader på Östermalm. Byggnader ritade av Erik Lallerstedt.</cmt>
        <desc>Bromska palatset</desc>
        <link href="http://sv.wikipedia.org/wiki/Bromska_palatset">
            <text>Bromska palatset</text>
            <type>Wikipedia</type>
        </link>
    </wpt>
    <wpt lat="59.32516667" lon="18.07536111">
        <name>Nygränd</name>
        <cmt>Gator och torg i Gamla stan.</cmt>
        <desc>Nygränd</desc>
        <link href="http://sv.wikipedia.org/wiki/Nygränd">
            <text>Nygränd</text>
            <type>Wikipedia</type>
        </link>
    </wpt>
    <wpt lat="59.32972222" lon="18.09638889">
        <name>Lejonslätten</name>
        <cmt>Djurgården.</cmt>
        <desc>Lejonslätten</desc>
        <link href="http://sv.wikipedia.org/wiki/Lejonslätten">
            <text>Lejonslätten</text>
            <type>Wikipedia</type>
        </link>
    </wpt>
    <wpt lat="59.32919444" lon="18.10188889">
        <name>Jenny Lind-statyn</name>
        <cmt>Skulpturer i Stockholm. Djurgården.</cmt>
        <desc>Jenny Lind-statyn</desc>
        <link href="http://sv.wikipedia.org/wiki/Jenny_Lind-statyn">
            <text>Jenny Lind-statyn</text>
            <type>Wikipedia</type>
        </link>
    </wpt>
    <wpt lat="59.33166667" lon="18.07472222">
        <name>Arsenalspalatset</name>
        <cmt>Byggnader på Norrmalm.</cmt>
        <desc>Arsenalspalatset</desc>
        <link href="http://sv.wikipedia.org/wiki/Arsenalspalatset">
            <text>Arsenalspalatset</text>
            <type>Wikipedia</type>
        </link>
    </wpt>
    <wpt lat="59.35152054" lon="18.15061188">
        <name>Högsätra</name>
        <cmt>Lidingö kommun.</cmt>
        <desc>Högsätra</desc>
        <link href="http://sv.wikipedia.org/wiki/Högsätra">
            <text>Högsätra</text>
            <type>Wikipedia</type>
        </link>
    </wpt>
    <wpt lat="59.32591111" lon="18.07337778">
        <name>Numismatiska biblioteket</name>
        <cmt>Bibliotek i Stockholm. Riksantikvarieämbetet. Numismatik.</cmt>
        <desc>Numismatiska biblioteket</desc>
        <link href="http://sv.wikipedia.org/wiki/Numismatiska_biblioteket">
            <text>Numismatiska biblioteket</text>
            <type>Wikipedia</type>
        </link>
    </wpt>
    <wpt lat="59.32416667" lon="18.07166667">
        <name>Tyska kyrkan, Stockholm</name>
        <cmt>Kyrkobyggnader i Gamla stan. Relationer mellan Sverige och Tyskland. Klockspel i Sverige.</cmt>
        <desc>Tyska kyrkan, Stockholm</desc>
        <link href="http://sv.wikipedia.org/wiki/Tyska_kyrkan,_Stockholm">
            <text>Tyska kyrkan, Stockholm</text>
            <type>Wikipedia</type>
        </link>
    </wpt>
    <wpt lat="59.32444382" lon="18.07250023">
        <name>Kvarteret Cassiopea</name>
        <cmt>Kvarter i Stockholm. Stockholms historia.</cmt>
        <desc>Kvarteret Cassiopea</desc>
        <link href="http://sv.wikipedia.org/wiki/Kvarteret_Cassiopea">
            <text>Kvarteret Cassiopea</text>
            <type>Wikipedia</type>
        </link>
    </wpt>
    <wpt lat="59.33041667" lon="18.07055556">
        <name>Sankt Jacobs kyrka</name>
        <cmt>Kyrkobyggnader i Stockholms innerstad. Alla sidor föreslagna att flyttas. Byggnader på Norrmalm. Religiösa
            byggnader invigda 1643. Orgeldispositioner. Sidor föreslagna att flyttas 2014-09. Kyrkobyggnader i
            Stockholms stift.
        </cmt>
        <desc>Sankt Jacobs kyrka</desc>
        <link href="http://sv.wikipedia.org/wiki/Sankt_Jacobs_kyrka">
            <text>Sankt Jacobs kyrka</text>
            <type>Wikipedia</type>
        </link>
    </wpt>
    <wpt lat="59.32508333" lon="18.07377778">
        <name>Köpmanbrinken</name>
        <cmt>Gator och torg i Gamla stan.</cmt>
        <desc>Köpmanbrinken</desc>
        <link href="http://sv.wikipedia.org/wiki/Köpmanbrinken">
            <text>Köpmanbrinken</text>
            <type>Wikipedia</type>
        </link>
    </wpt>
    <wpt lat="59.36500168" lon="18.21666718">
        <name>Hustegafjärden</name>
        <cmt>Fjärdar i Stockholms skärgård. Lidingös historia. Lidingö kommun.</cmt>
        <desc>Hustegafjärden</desc>
        <link href="http://sv.wikipedia.org/wiki/Hustegafjärden">
            <text>Hustegafjärden</text>
            <type>Wikipedia</type>
        </link>
    </wpt>
    <wpt lat="59.32375" lon="18.07336111">
        <name>Baggensgatan 27</name>
        <cmt>Byggnader i Gamla stan.</cmt>
        <desc>Baggensgatan 27</desc>
        <link href="http://sv.wikipedia.org/wiki/Baggensgatan_27">
            <text>Baggensgatan 27</text>
            <type>Wikipedia</type>
        </link>
    </wpt>
    <wpt lat="59.32722222" lon="18.07638889">
        <name>Blasieholmsleden</name>
        <cmt>Nedlagda byggprojekt i Stockholm. Blasieholmen. Motortrafikleder. Vägtrafik i Stockholm.</cmt>
        <desc>Blasieholmsleden</desc>
        <link href="http://sv.wikipedia.org/wiki/Blasieholmsleden">
            <text>Blasieholmsleden</text>
            <type>Wikipedia</type>
        </link>
    </wpt>
    <wpt lat="59.33583333" lon="18.08805556">
        <name>Unga Dramaten</name>
        <cmt>Scenkonst för barn och unga. Teaterinstitutioner och teatergrupper. Teatrar i Stockholm.</cmt>
        <desc>Unga Dramaten</desc>
        <link href="http://sv.wikipedia.org/wiki/Unga_Dramaten">
            <text>Unga Dramaten</text>
            <type>Wikipedia</type>
        </link>
    </wpt>
    <wpt lat="59.34663889" lon="18.17676944">
        <name>Kottla</name>
        <cmt>Skärsätra. Lidingö kommun.</cmt>
        <desc>Kottla</desc>
        <link href="http://sv.wikipedia.org/wiki/Kottla">
            <text>Kottla</text>
            <type>Wikipedia</type>
        </link>
    </wpt>
    <wpt lat="59.331025" lon="18.07481667">
        <name>Douglaska palatset</name>
        <cmt>Byggnader avbildade i Suecian. Byggnader på Blasieholmen. Palats i Stockholm.</cmt>
        <desc>Douglaska palatset</desc>
        <link href="http://sv.wikipedia.org/wiki/Douglaska_palatset">
            <text>Douglaska palatset</text>
            <type>Wikipedia</type>
        </link>
    </wpt>
    <wpt lat="59.32963943" lon="18.07186127">
        <name>Jussi Björlings allé</name>
        <cmt>Gator och torg på Norrmalm.</cmt>
        <desc>Jussi Björlings allé</desc>
        <link href="http://sv.wikipedia.org/wiki/Jussi_Björlings_allé">
            <text>Jussi Björlings allé</text>
            <type>Wikipedia</type>
        </link>
    </wpt>
    <wpt lat="59.32735556" lon="18.09098611">
        <name>Bernhard Ingelsson (sjöräddningskryssare)</name>
        <cmt>Svenska veteranfartyg. Museifartyg i Sverige. Tidigare svenska räddningsfartyg.</cmt>
        <desc>Bernhard Ingelsson (sjöräddningskryssare)</desc>
        <link href="http://sv.wikipedia.org/wiki/Bernhard_Ingelsson_(sjöräddningskryssare)">
            <text>Bernhard Ingelsson (sjöräddningskryssare)</text>
            <type>Wikipedia</type>
        </link>
    </wpt>
    <wpt lat="59.33194444" lon="18.08638889">
        <name>Grev Magnigatan</name>
        <cmt>Gator och torg på Östermalm.</cmt>
        <desc>Grev Magnigatan</desc>
        <link href="http://sv.wikipedia.org/wiki/Grev_Magnigatan">
            <text>Grev Magnigatan</text>
            <type>Wikipedia</type>
        </link>
    </wpt>
    <wpt lat="59.34761111" lon="18.16151111">
        <name>Bergsätra</name>
        <cmt>Skärsätra. Lidingö kommun.</cmt>
        <desc>Bergsätra</desc>
        <link href="http://sv.wikipedia.org/wiki/Bergsätra">
            <text>Bergsätra</text>
            <type>Wikipedia</type>
        </link>
    </wpt>
    <wpt lat="59.33291667" lon="18.10583333">
        <name>Villa Hjorth</name>
        <cmt>1930 i Sverige. Officiella residens i Sverige. Arkitekturåret 1930. Villor i Diplomatstaden.</cmt>
        <desc>Villa Hjorth</desc>
        <link href="http://sv.wikipedia.org/wiki/Villa_Hjorth">
            <text>Villa Hjorth</text>
            <type>Wikipedia</type>
        </link>
    </wpt>
    <wpt lat="59.35405556" lon="18.098075">
        <name>Hjorthagen</name>
        <cmt>Östermalms stadsdelsområde. Hjorthagen. Stadsdelar i Stockholm.</cmt>
        <desc>Hjorthagen</desc>
        <link href="http://sv.wikipedia.org/wiki/Hjorthagen">
            <text>Hjorthagen</text>
            <type>Wikipedia</type>
        </link>
    </wpt>
    <wpt lat="59.32988611" lon="18.07361667">
        <name>Hammerska ladan</name>
        <cmt>Norrmalm. Svensk teater före 1900. Kungsträdgårdsgatan. Teatrar i Stockholm.</cmt>
        <desc>Hammerska ladan</desc>
        <link href="http://sv.wikipedia.org/wiki/Hammerska_ladan">
            <text>Hammerska ladan</text>
            <type>Wikipedia</type>
        </link>
    </wpt>
    <wpt lat="59.3488" lon="18.1845">
        <name>Kottlasjön</name>
        <cmt>Insjöar i Åkerström-Norrströms kustområde. Insjöar i Uppland. Insjöar i Lidingö kommun.</cmt>
        <desc>Kottlasjön</desc>
        <link href="http://sv.wikipedia.org/wiki/Kottlasjön">
            <text>Kottlasjön</text>
            <type>Wikipedia</type>
        </link>
    </wpt>
    <wpt lat="59.35235977" lon="18.17630959">
        <name>Stockbysjön</name>
        <cmt>Insjöar i Lidingö kommun. Insjöar i Uppland. Insjöar i Åkerström-Norrströms kustområde.</cmt>
        <desc>Stockbysjön</desc>
        <link href="http://sv.wikipedia.org/wiki/Stockbysjön">
            <text>Stockbysjön</text>
            <type>Wikipedia</type>
        </link>
    </wpt>
    <wpt lat="59.35555649" lon="18.22805595">
        <name>Käppalaverket</name>
        <cmt>Reningsverk i Sverige. Byggnader i Lidingö kommun. Käppala.</cmt>
        <desc>Käppalaverket</desc>
        <link href="http://sv.wikipedia.org/wiki/Käppalaverket">
            <text>Käppalaverket</text>
            <type>Wikipedia</type>
        </link>
    </wpt>
    <wpt lat="59.36555556" lon="18.235">
        <name>Villa Kullen, Lidingö kommun</name>
        <cmt>Byggnader i Lidingö kommun. Byggnader ritade av Isak Gustaf Clason.</cmt>
        <desc>Villa Kullen, Lidingö kommun</desc>
        <link href="http://sv.wikipedia.org/wiki/Villa_Kullen,_Lidingö_kommun">
            <text>Villa Kullen, Lidingö kommun</text>
            <type>Wikipedia</type>
        </link>
    </wpt>
    <wpt lat="59.32730556" lon="18.07108333">
        <name>Lejonbacken</name>
        <cmt>Stockholms slott. Gator och torg i Gamla stan. Byggnader ritade av Per Axel Nyström.</cmt>
        <desc>Lejonbacken</desc>
        <link href="http://sv.wikipedia.org/wiki/Lejonbacken">
            <text>Lejonbacken</text>
            <type>Wikipedia</type>
        </link>
    </wpt>
    <wpt lat="59.33155556" lon="18.07575">
        <name>Wedholms fisk</name>
        <cmt>Företag bildade 1985. Blasieholmen. Restauranger i Stockholm.</cmt>
        <desc>Wedholms fisk</desc>
        <link href="http://sv.wikipedia.org/wiki/Wedholms_fisk">
            <text>Wedholms fisk</text>
            <type>Wikipedia</type>
        </link>
    </wpt>
    <wpt lat="59.36848068" lon="18.21999931">
        <name>Sjövik, Lidingö</name>
        <cmt>Lidingö kommun.</cmt>
        <desc>Sjövik, Lidingö</desc>
        <link href="http://sv.wikipedia.org/wiki/Sjövik,_Lidingö">
            <text>Sjövik, Lidingö</text>
            <type>Wikipedia</type>
        </link>
    </wpt>
    <wpt lat="59.33129167" lon="18.07277778">
        <name>Kungsträdgårdsgatan 8</name>
        <cmt>Byggnader ritade av Ivar Tengbom. Byggnader på Norrmalm. SEB. Bankbyggnader i Sverige.
            Kungsträdgårdsgatan.
        </cmt>
        <desc>Kungsträdgårdsgatan 8</desc>
        <link href="http://sv.wikipedia.org/wiki/Kungsträdgårdsgatan_8">
            <text>Kungsträdgårdsgatan 8</text>
            <type>Wikipedia</type>
        </link>
    </wpt>
    <wpt lat="59.33138889" lon="18.07027778">
        <name>Kungliga Trädgården 3</name>
        <cmt>Byggnader på Norrmalm.</cmt>
        <desc>Kungliga Trädgården 3</desc>
        <link href="http://sv.wikipedia.org/wiki/Kungliga_Trädgården_3">
            <text>Kungliga Trädgården 3</text>
            <type>Wikipedia</type>
        </link>
    </wpt>
    <wpt lat="59.35803889" lon="18.23133056">
        <name>Gåshaga</name>
        <cmt>Käppala. Lidingö kommun.</cmt>
        <desc>Gåshaga</desc>
        <link href="http://sv.wikipedia.org/wiki/Gåshaga">
            <text>Gåshaga</text>
            <type>Wikipedia</type>
        </link>
    </wpt>
    <wpt lat="59.32448889" lon="18.07532778">
        <name>Dångerska huset</name>
        <cmt>Skeppsbron.</cmt>
        <desc>Dångerska huset</desc>
        <link href="http://sv.wikipedia.org/wiki/Dångerska_huset">
            <text>Dångerska huset</text>
            <type>Wikipedia</type>
        </link>
    </wpt>
    <wpt lat="59.33297222" lon="18.07311111">
        <name>Hamngatan</name>
        <cmt>Gator och torg på Norrmalm.</cmt>
        <desc>Hamngatan</desc>
        <link href="http://sv.wikipedia.org/wiki/Hamngatan">
            <text>Hamngatan</text>
            <type>Wikipedia</type>
        </link>
    </wpt>
    <wpt lat="59.33189011" lon="18.08511162">
        <name>Rederi AB Rex</name>
        <cmt>Rederier bildade 1903. Ej längre existerande svenska rederier.</cmt>
        <desc>Rederi AB Rex</desc>
        <link href="http://sv.wikipedia.org/wiki/Rederi_AB_Rex">
            <text>Rederi AB Rex</text>
            <type>Wikipedia</type>
        </link>
    </wpt>
    <wpt lat="59.33183333" lon="18.07488889">
        <name>Slovakiens ambassad i Stockholm</name>
        <cmt>Relationer mellan Slovakien och Sverige. Blasieholmen. Ambassader i Stockholm. Byggnader på Norrmalm.</cmt>
        <desc>Slovakiens ambassad i Stockholm</desc>
        <link href="http://sv.wikipedia.org/wiki/Slovakiens_ambassad_i_Stockholm">
            <text>Slovakiens ambassad i Stockholm</text>
            <type>Wikipedia</type>
        </link>
    </wpt>
    <wpt lat="59.35678056" lon="18.1944">
        <name>Långängen-Elfviks naturreservat</name>
        <cmt>Faktakoll 2014-10. Naturskyddsområden bildade 2008. Naturreservat i Lidingö kommun.</cmt>
        <desc>Långängen-Elfviks naturreservat</desc>
        <link href="http://sv.wikipedia.org/wiki/Långängen-Elfviks_naturreservat">
            <text>Långängen-Elfviks naturreservat</text>
            <type>Wikipedia</type>
        </link>
    </wpt>
    <wpt lat="59.325" lon="18.06872222">
        <name>Gåstorget</name>
        <cmt>Enwp. Gator och torg i Gamla stan.</cmt>
        <desc>Gåstorget</desc>
        <link href="http://sv.wikipedia.org/wiki/Gåstorget">
            <text>Gåstorget</text>
            <type>Wikipedia</type>
        </link>
    </wpt>
    <wpt lat="59.3249" lon="18.07319">
        <name>Andromeda 7</name>
        <cmt>Byggnadsminnen i Stockholms kommun. Byggnader i Gamla stan.</cmt>
        <desc>Andromeda 7</desc>
        <link href="http://sv.wikipedia.org/wiki/Andromeda_7">
            <text>Andromeda 7</text>
            <type>Wikipedia</type>
        </link>
    </wpt>
    <wpt lat="59.33194444" lon="18.08875">
        <name>Egyptens ambassad i Stockholm</name>
        <cmt>Bildanden 1937. Relationer mellan Egypten och Sverige. Byggnader på Östermalm. Ambassader i Stockholm.
        </cmt>
        <desc>Egyptens ambassad i Stockholm</desc>
        <link href="http://sv.wikipedia.org/wiki/Egyptens_ambassad_i_Stockholm">
            <text>Egyptens ambassad i Stockholm</text>
            <type>Wikipedia</type>
        </link>
    </wpt>
    <wpt lat="59.32555556" lon="18.07638889">
        <name>M/S Birger Jarl</name>
        <cmt>Fartyg sjösatta 1953. Fartyg som trafikerar Östersjön. Birger jarl. K-märkta fartyg. Vandrarhem i Sverige.
            Kryssningsfartyg. Fartyg byggda i Stockholm.
        </cmt>
        <desc>M/S Birger Jarl</desc>
        <link href="http://sv.wikipedia.org/wiki/M/S_Birger_Jarl">
            <text>M/S Birger Jarl</text>
            <type>Wikipedia</type>
        </link>
    </wpt>
    <wpt lat="59.32990265" lon="18.07811737">
        <name>Hellstrandska huset</name>
        <cmt>Byggnader på Blasieholmen. Byggnader ritade av Hagström och Ekman.</cmt>
        <desc>Hellstrandska huset</desc>
        <link href="http://sv.wikipedia.org/wiki/Hellstrandska_huset">
            <text>Hellstrandska huset</text>
            <type>Wikipedia</type>
        </link>
    </wpt>
    <wpt lat="59.33942778" lon="18.10121389">
        <name>Stockholms dramatiska högskola</name>
        <cmt>Stockholms konstnärliga högskola. Högre utbildning i Stockholm. Utbildningsinstitutioner bildade 2011.
            Filmutbildning. Illustrationsbehov-Stockholm.
        </cmt>
        <desc>Stockholms dramatiska högskola</desc>
        <link href="http://sv.wikipedia.org/wiki/Stockholms_dramatiska_högskola">
            <text>Stockholms dramatiska högskola</text>
            <type>Wikipedia</type>
        </link>
    </wpt>
    <wpt lat="59.35152817" lon="18.10915756">
        <name>Värtahamnen</name>
        <cmt>Hamnar i Sverige. Gärdet. Sjöfart i Stockholm. Hjorthagen.</cmt>
        <desc>Värtahamnen</desc>
        <link href="http://sv.wikipedia.org/wiki/Värtahamnen">
            <text>Värtahamnen</text>
            <type>Wikipedia</type>
        </link>
    </wpt>
    <wpt lat="59.32406616" lon="18.07345009">
        <name>Ahlströms jungfrubur</name>
        <cmt>Bordeller. Historiska verksamheter i Gamla stan.</cmt>
        <desc>Ahlströms jungfrubur</desc>
        <link href="http://sv.wikipedia.org/wiki/Ahlströms_jungfrubur">
            <text>Ahlströms jungfrubur</text>
            <type>Wikipedia</type>
        </link>
    </wpt>
    <wpt lat="59.33065033" lon="18.07581902">
        <name>Kungliga Musikaliska Akademien</name>
        <cmt>Byggnader på Blasieholmen. Organisationer bildade 1771.</cmt>
        <desc>Kungliga Musikaliska Akademien</desc>
        <link href="http://sv.wikipedia.org/wiki/Kungliga_Musikaliska_Akademien">
            <text>Kungliga Musikaliska Akademien</text>
            <type>Wikipedia</type>
        </link>
    </wpt>
    <wpt lat="59.33277778" lon="18.07277778">
        <name>MEA-huset</name>
        <cmt>Byggnader på Norrmalm.</cmt>
        <desc>MEA-huset</desc>
        <link href="http://sv.wikipedia.org/wiki/MEA-huset">
            <text>MEA-huset</text>
            <type>Wikipedia</type>
        </link>
    </wpt>
    <wpt lat="59.33943889" lon="18.1013">
        <name>Dramatiska Institutet</name>
        <cmt>Utbildningsinstitutioner bildade 1970. Högre utbildning i Stockholm. Ej längre existerande universitet och
            högskolor i Sverige.
        </cmt>
        <desc>Dramatiska Institutet</desc>
        <link href="http://sv.wikipedia.org/wiki/Dramatiska_Institutet">
            <text>Dramatiska Institutet</text>
            <type>Wikipedia</type>
        </link>
    </wpt>
    <wpt lat="59.32586944" lon="18.07150556">
        <name>Obelisken i Stockholm</name>
        <cmt>Obelisker. Skulpturer i Gamla stan. Gamla stan. Minnesmärken i Sverige.</cmt>
        <desc>Obelisken i Stockholm</desc>
        <link href="http://sv.wikipedia.org/wiki/Obelisken_i_Stockholm">
            <text>Obelisken i Stockholm</text>
            <type>Wikipedia</type>
        </link>
    </wpt>
    <wpt lat="59.3330574" lon="18.10111046">
        <name>Törnerska villan</name>
        <cmt>Villor i Sverige. Byggnader på Östermalm.</cmt>
        <desc>Törnerska villan</desc>
        <link href="http://sv.wikipedia.org/wiki/Törnerska_villan">
            <text>Törnerska villan</text>
            <type>Wikipedia</type>
        </link>
    </wpt>
    <wpt lat="59.32583333" lon="18.06944444">
        <name>Beijerska huset</name>
        <cmt>Privatpalats i Stockholm. Byggnadsminnen i Stockholms kommun. Byggnader i Gamla stan.</cmt>
        <desc>Beijerska huset</desc>
        <link href="http://sv.wikipedia.org/wiki/Beijerska_huset">
            <text>Beijerska huset</text>
            <type>Wikipedia</type>
        </link>
    </wpt>
    <wpt lat="59.33153333" lon="18.07255833">
        <name>Kungsträdgårdsgatan 10</name>
        <cmt>SEB. Byggnader ritade av Ivar Tengbom. Kungsträdgårdsgatan. Byggnader på Norrmalm.</cmt>
        <desc>Kungsträdgårdsgatan 10</desc>
        <link href="http://sv.wikipedia.org/wiki/Kungsträdgårdsgatan_10">
            <text>Kungsträdgårdsgatan 10</text>
            <type>Wikipedia</type>
        </link>
    </wpt>
    <wpt lat="59.32701111" lon="18.09080833">
        <name>S/S Sankt Erik</name>
        <cmt>Museifartyg i Sverige. Fartyg sjösatta 1915. K-märkta fartyg. Svenska isbrytare. Svenska ångfartyg.
            Djurgården. Fartyg byggda i Stockholm.
        </cmt>
        <desc>S/S Sankt Erik</desc>
        <link href="http://sv.wikipedia.org/wiki/S/S_Sankt_Erik">
            <text>S/S Sankt Erik</text>
            <type>Wikipedia</type>
        </link>
    </wpt>
    <wpt lat="59.32738113" lon="18.07321739">
        <name>Logårdstrappan</name>
        <cmt>Stockholms slott. Skeppsbron. Gator och torg i Gamla stan.</cmt>
        <desc>Logårdstrappan</desc>
        <link href="http://sv.wikipedia.org/wiki/Logårdstrappan">
            <text>Logårdstrappan</text>
            <type>Wikipedia</type>
        </link>
    </wpt>
    <wpt lat="59.325" lon="18.07533333">
        <name>Brunnsgränd</name>
        <cmt>Gator och torg i Gamla stan.</cmt>
        <desc>Brunnsgränd</desc>
        <link href="http://sv.wikipedia.org/wiki/Brunnsgränd">
            <text>Brunnsgränd</text>
            <type>Wikipedia</type>
        </link>
    </wpt>
    <wpt lat="59.32513889" lon="18.07261111">
        <name>Skeppar Olofs gränd</name>
        <cmt>Gator och torg i Gamla stan.</cmt>
        <desc>Skeppar Olofs gränd</desc>
        <link href="http://sv.wikipedia.org/wiki/Skeppar_Olofs_gränd">
            <text>Skeppar Olofs gränd</text>
            <type>Wikipedia</type>
        </link>
    </wpt>
    <wpt lat="59.325" lon="18.07341667">
        <name>Baggensgatan</name>
        <cmt>Gator och torg i Gamla stan.</cmt>
        <desc>Baggensgatan</desc>
        <link href="http://sv.wikipedia.org/wiki/Baggensgatan">
            <text>Baggensgatan</text>
            <type>Wikipedia</type>
        </link>
    </wpt>
    <wpt lat="59.33194444" lon="18.07666667">
        <name>Nybrovikens skridskobana</name>
        <cmt>Sportanläggningar i Stockholms län. Östermalm.</cmt>
        <desc>Nybrovikens skridskobana</desc>
        <link href="http://sv.wikipedia.org/wiki/Nybrovikens_skridskobana">
            <text>Nybrovikens skridskobana</text>
            <type>Wikipedia</type>
        </link>
    </wpt>
    <wpt lat="59.33049722" lon="18.07636111">
        <name>Bååtska palatset</name>
        <cmt>Byggnader ritade av Nicodemus Tessin d.ä.. Privatpalats i Stockholm. Byggnadsminnen i Stockholms kommun.
            Byggnader avbildade i Suecian. Byggnader på Blasieholmen.
        </cmt>
        <desc>Bååtska palatset</desc>
        <link href="http://sv.wikipedia.org/wiki/Bååtska_palatset">
            <text>Bååtska palatset</text>
            <type>Wikipedia</type>
        </link>
    </wpt>
    <wpt lat="59.33115833" lon="18.07621944">
        <name>Stockholms läns blåsarsymfoniker</name>
        <cmt>Musikgrupper bildade 1906. Stockholms läns landsting. Musik i Stockholm. Svenska blåsorkestrar.</cmt>
        <desc>Stockholms läns blåsarsymfoniker</desc>
        <link href="http://sv.wikipedia.org/wiki/Stockholms_läns_blåsarsymfoniker">
            <text>Stockholms läns blåsarsymfoniker</text>
            <type>Wikipedia</type>
        </link>
    </wpt>
    <wpt lat="59.32531944" lon="18.07134167">
        <name>Stockholms domkyrkoförsamling</name>
        <cmt>Norrmalm. Församlingar i Stockholms kommun. Verksamheter i Gamla stan.</cmt>
        <desc>Stockholms domkyrkoförsamling</desc>
        <link href="http://sv.wikipedia.org/wiki/Stockholms_domkyrkoförsamling">
            <text>Stockholms domkyrkoförsamling</text>
            <type>Wikipedia</type>
        </link>
    </wpt>
    <wpt lat="59.36861111" lon="18.22194444">
        <name>Furutorp</name>
        <cmt>Orter i Lidingö kommun. Småorter i Sverige.</cmt>
        <desc>Furutorp</desc>
        <link href="http://sv.wikipedia.org/wiki/Furutorp">
            <text>Furutorp</text>
            <type>Wikipedia</type>
        </link>
    </wpt>
    <wpt lat="59.33250046" lon="18.10438919">
        <name>Villa Bonnier</name>
        <cmt>Byggnader ritade av Ragnar Östberg. 1927 i Sverige. Arkitekturåret 1927. Byggnader med anknytning till
            Bonnierfamiljen. Villor i Diplomatstaden.
        </cmt>
        <desc>Villa Bonnier</desc>
        <link href="http://sv.wikipedia.org/wiki/Villa_Bonnier">
            <text>Villa Bonnier</text>
            <type>Wikipedia</type>
        </link>
    </wpt>
    <wpt lat="59.32972222" lon="18.07694444">
        <name>Blasieholmen</name>
        <cmt>Blasieholmen.</cmt>
        <desc>Blasieholmen</desc>
        <link href="http://sv.wikipedia.org/wiki/Blasieholmen">
            <text>Blasieholmen</text>
            <type>Wikipedia</type>
        </link>
    </wpt>
    <wpt lat="59.32333333" lon="18.07041667">
        <name>Lejonstedts gränd</name>
        <cmt>Gator och torg i Gamla stan.</cmt>
        <desc>Lejonstedts gränd</desc>
        <link href="http://sv.wikipedia.org/wiki/Lejonstedts_gränd">
            <text>Lejonstedts gränd</text>
            <type>Wikipedia</type>
        </link>
    </wpt>
    <wpt lat="59.32391667" lon="18.06947222">
        <name>Schönfeldts gränd</name>
        <cmt>Gator och torg i Gamla stan.</cmt>
        <desc>Schönfeldts gränd</desc>
        <link href="http://sv.wikipedia.org/wiki/Schönfeldts_gränd">
            <text>Schönfeldts gränd</text>
            <type>Wikipedia</type>
        </link>
    </wpt>
    <wpt lat="59.33065556" lon="18.09439167">
        <name>Blå porten</name>
        <cmt>Djurgården.</cmt>
        <desc>Blå porten</desc>
        <link href="http://sv.wikipedia.org/wiki/Blå_porten">
            <text>Blå porten</text>
            <type>Wikipedia</type>
        </link>
    </wpt>
    <wpt lat="59.33333333" lon="18.10055556">
        <name>Berwaldhallen</name>
        <cmt>Arkitekturåret 1979. Byggnader på Östermalm. Konsertscener i Stockholm. Konserthus i Sverige.</cmt>
        <desc>Berwaldhallen</desc>
        <link href="http://sv.wikipedia.org/wiki/Berwaldhallen">
            <text>Berwaldhallen</text>
            <type>Wikipedia</type>
        </link>
    </wpt>
    <wpt lat="59.32944444" lon="18.08888889">
        <name>Junibacken</name>
        <cmt>Scenkonst för barn och unga. Institutioner för barnkultur. Kultur och konst i Stockholm. Astrid Lindgren.
            Djurgården.
        </cmt>
        <desc>Junibacken</desc>
        <link href="http://sv.wikipedia.org/wiki/Junibacken">
            <text>Junibacken</text>
            <type>Wikipedia</type>
        </link>
    </wpt>
    <wpt lat="59.33138889" lon="18.07266667">
        <name>Wahrendorffsgatan</name>
        <cmt>Gator och torg på Norrmalm.</cmt>
        <desc>Wahrendorffsgatan</desc>
        <link href="http://sv.wikipedia.org/wiki/Wahrendorffsgatan">
            <text>Wahrendorffsgatan</text>
            <type>Wikipedia</type>
        </link>
    </wpt>
    <wpt lat="59.34722222" lon="18.10277778">
        <name>Fyrtalet</name>
        <cmt>Byggnader på Gärdet. Stiftelsen Stockholms Studentbostäder.</cmt>
        <desc>Fyrtalet</desc>
        <link href="http://sv.wikipedia.org/wiki/Fyrtalet">
            <text>Fyrtalet</text>
            <type>Wikipedia</type>
        </link>
    </wpt>
    <wpt lat="59.32777786" lon="18.10388947">
        <name>Delsbogården</name>
        <cmt>Skansen.</cmt>
        <desc>Delsbogården</desc>
        <link href="http://sv.wikipedia.org/wiki/Delsbogården">
            <text>Delsbogården</text>
            <type>Wikipedia</type>
        </link>
    </wpt>
    <wpt lat="59.33222198" lon="18.08749962">
        <name>Terra Nova (skeppsvarv)</name>
        <cmt>Nedlagda svenska skeppsvarv.</cmt>
        <desc>Terra Nova (skeppsvarv)</desc>
        <link href="http://sv.wikipedia.org/wiki/Terra_Nova_(skeppsvarv)">
            <text>Terra Nova (skeppsvarv)</text>
            <type>Wikipedia</type>
        </link>
    </wpt>
    <wpt lat="59.3325" lon="18.07527778">
        <name>Nybroplan</name>
        <cmt>Gator och torg på Norrmalm.</cmt>
        <desc>Nybroplan</desc>
        <link href="http://sv.wikipedia.org/wiki/Nybroplan">
            <text>Nybroplan</text>
            <type>Wikipedia</type>
        </link>
    </wpt>
    <wpt lat="59.32640839" lon="18.07112503">
        <name>Gästvåningen</name>
        <cmt>Stockholms slott.</cmt>
        <desc>Gästvåningen</desc>
        <link href="http://sv.wikipedia.org/wiki/Gästvåningen">
            <text>Gästvåningen</text>
            <type>Wikipedia</type>
        </link>
    </wpt>
    <wpt lat="59.35038889" lon="18.12555278">
        <name>Lilla Värtan</name>
        <cmt>Östermalms stadsdelsområde. Fjärdar i Stockholms skärgård. Lidingös historia. Nacka kommun. Lidingö
            kommun.
        </cmt>
        <desc>Lilla Värtan</desc>
        <link href="http://sv.wikipedia.org/wiki/Lilla_Värtan">
            <text>Lilla Värtan</text>
            <type>Wikipedia</type>
        </link>
    </wpt>
    <wpt lat="59.36219406" lon="18.12333298">
        <name>Eritreas ambassad i Stockholm</name>
        <cmt>Relationer mellan Eritrea och Sverige. Ambassader i Stockholm.</cmt>
        <desc>Eritreas ambassad i Stockholm</desc>
        <link href="http://sv.wikipedia.org/wiki/Eritreas_ambassad_i_Stockholm">
            <text>Eritreas ambassad i Stockholm</text>
            <type>Wikipedia</type>
        </link>
    </wpt>
    <wpt lat="59.32483333" lon="18.07297222">
        <name>Brända tomten</name>
        <cmt>Bränder 1728. Gator och torg i Gamla stan.</cmt>
        <desc>Brända tomten</desc>
        <link href="http://sv.wikipedia.org/wiki/Brända_tomten">
            <text>Brända tomten</text>
            <type>Wikipedia</type>
        </link>
    </wpt>
    <wpt lat="59.34825" lon="18.09386111">
        <name>Södra Roslags tingsrätt</name>
        <cmt>Historiska tingsrätter i Sverige.</cmt>
        <desc>Södra Roslags tingsrätt</desc>
        <link href="http://sv.wikipedia.org/wiki/Södra_Roslags_tingsrätt">
            <text>Södra Roslags tingsrätt</text>
            <type>Wikipedia</type>
        </link>
    </wpt>
    <wpt lat="59.32561111" lon="18.07116699">
        <name>Källargränd</name>
        <cmt>Gator och torg i Gamla stan.</cmt>
        <desc>Källargränd</desc>
        <link href="http://sv.wikipedia.org/wiki/Källargränd">
            <text>Källargränd</text>
            <type>Wikipedia</type>
        </link>
    </wpt>
    <wpt lat="59.33944444" lon="18.12083333">
        <name>Fordhuset, Stockholm</name>
        <cmt>Byggnader på Gärdet. Funktionalistisk arkitektur.</cmt>
        <desc>Fordhuset, Stockholm</desc>
        <link href="http://sv.wikipedia.org/wiki/Fordhuset,_Stockholm">
            <text>Fordhuset, Stockholm</text>
            <type>Wikipedia</type>
        </link>
    </wpt>
    <wpt lat="59.32487222" lon="18.07542778">
        <name>Filippinernas ambassad i Stockholm</name>
        <cmt>Relationer mellan Filippinerna och Sverige. Bildanden 1979. Skeppsbron. Ambassader i Stockholm.
            Verksamheter i Gamla stan.
        </cmt>
        <desc>Filippinernas ambassad i Stockholm</desc>
        <link href="http://sv.wikipedia.org/wiki/Filippinernas_ambassad_i_Stockholm">
            <text>Filippinernas ambassad i Stockholm</text>
            <type>Wikipedia</type>
        </link>
    </wpt>
    <wpt lat="59.3235" lon="18.07297778">
        <name>Storkyrkobadet</name>
        <cmt>Sportanläggningar i Stockholms län. Gamla stan. Badhus i Stockholm.</cmt>
        <desc>Storkyrkobadet</desc>
        <link href="http://sv.wikipedia.org/wiki/Storkyrkobadet">
            <text>Storkyrkobadet</text>
            <type>Wikipedia</type>
        </link>
    </wpt>
    <wpt lat="59.35738754" lon="18.10222244">
        <name>Stockholmsfyren</name>
        <cmt>Planerade skyskrapor i Sverige. Planerade byggprojekt. Hjorthagen.</cmt>
        <desc>Stockholmsfyren</desc>
        <link href="http://sv.wikipedia.org/wiki/Stockholmsfyren">
            <text>Stockholmsfyren</text>
            <type>Wikipedia</type>
        </link>
    </wpt>
    <wpt lat="59.32997513" lon="18.07136726">
        <name>Operakällaren</name>
        <cmt>Norrmalm. Företag bildade 1787. Vinnare av Gulddraken. Restauranger i Sverige med stjärnor i
            Michelinguiden. Peter Celsing. Restauranger i Stockholm.
        </cmt>
        <desc>Operakällaren</desc>
        <link href="http://sv.wikipedia.org/wiki/Operakällaren">
            <text>Operakällaren</text>
            <type>Wikipedia</type>
        </link>
    </wpt>
    <wpt lat="59.33138889" lon="18.07111111">
        <name>Karl XIII:s staty</name>
        <cmt>Norrmalm. Skulpturer i Stockholm.</cmt>
        <desc>Karl XIII:s staty</desc>
        <link href="http://sv.wikipedia.org/wiki/Karl_XIII:s_staty">
            <text>Karl XIII:s staty</text>
            <type>Wikipedia</type>
        </link>
    </wpt>
    <wpt lat="59.32538889" lon="18.07241667">
        <name>Trädgårdsgatan</name>
        <cmt>Gator och torg i Gamla stan.</cmt>
        <desc>Trädgårdsgatan</desc>
        <link href="http://sv.wikipedia.org/wiki/Trädgårdsgatan">
            <text>Trädgårdsgatan</text>
            <type>Wikipedia</type>
        </link>
    </wpt>
    <wpt lat="59.33322222" lon="18.08294444">
        <name>Nya lärarinneseminariet</name>
        <cmt>Utbildningsinstitutioner bildade 1896. Utbildningsinstitutioner upplösta 1912. Ej längre existerande
            utbildning i Stockholm.
        </cmt>
        <desc>Nya lärarinneseminariet</desc>
        <link href="http://sv.wikipedia.org/wiki/Nya_lärarinneseminariet">
            <text>Nya lärarinneseminariet</text>
            <type>Wikipedia</type>
        </link>
    </wpt>
    <wpt lat="59.33277778" lon="18.07722222">
        <name>Feiths konditori</name>
        <cmt>Nöjeslokaler i Stockholm. Platser i Evert Taubes visor. Nedlagda kaféer i Sverige.</cmt>
        <desc>Feiths konditori</desc>
        <link href="http://sv.wikipedia.org/wiki/Feiths_konditori">
            <text>Feiths konditori</text>
            <type>Wikipedia</type>
        </link>
    </wpt>
    <wpt lat="59.32525" lon="18.07211111">
        <name>Trädgårdstvärgränd</name>
        <cmt>Gator och torg i Gamla stan.</cmt>
        <desc>Trädgårdstvärgränd</desc>
        <link href="http://sv.wikipedia.org/wiki/Trädgårdstvärgränd">
            <text>Trädgårdstvärgränd</text>
            <type>Wikipedia</type>
        </link>
    </wpt>
    <wpt lat="59.36055556" lon="18.11055556">
        <name>Lidingöbron</name>
        <cmt>Broar i Stockholm. Broar invigda 1925.</cmt>
        <desc>Lidingöbron</desc>
        <link href="http://sv.wikipedia.org/wiki/Lidingöbron">
            <text>Lidingöbron</text>
            <type>Wikipedia</type>
        </link>
    </wpt>
    <wpt lat="59.32502778" lon="18.07305556">
        <name>Själagårdsgatan</name>
        <cmt>Gator och torg i Gamla stan.</cmt>
        <desc>Själagårdsgatan</desc>
        <link href="http://sv.wikipedia.org/wiki/Själagårdsgatan">
            <text>Själagårdsgatan</text>
            <type>Wikipedia</type>
        </link>
    </wpt>
    <wpt lat="59.35619444" lon="18.13116667">
        <name>Baggeby</name>
        <cmt>Kommundelar i Lidingö kommun.</cmt>
        <desc>Baggeby</desc>
        <link href="http://sv.wikipedia.org/wiki/Baggeby">
            <text>Baggeby</text>
            <type>Wikipedia</type>
        </link>
    </wpt>
    <wpt lat="59.32636111" lon="18.07122222">
        <name>Ordenssalarna</name>
        <cmt>Stockholms slott. Kungl. Maj:ts orden.</cmt>
        <desc>Ordenssalarna</desc>
        <link href="http://sv.wikipedia.org/wiki/Ordenssalarna">
            <text>Ordenssalarna</text>
            <type>Wikipedia</type>
        </link>
    </wpt>
    <wpt lat="59.33250046" lon="18.11583328">
        <name>Sjöhistoriska museet</name>
        <cmt>Historiska verksamheter i Gamla stan. Byggnader ritade av Ragnar Östberg. Byggnader på Gärdet. Museer
            invigda 1938. Gärdet. Sjöfart i Stockholm. Statliga museer i Stockholm. Sjöfartsmuseer i Sverige.
            Militärhistoriska museer i Sverige. Teknikmuseer i Sverige.
        </cmt>
        <desc>Sjöhistoriska museet</desc>
        <link href="http://sv.wikipedia.org/wiki/Sjöhistoriska_museet">
            <text>Sjöhistoriska museet</text>
            <type>Wikipedia</type>
        </link>
    </wpt>
    <wpt lat="59.33083344" lon="18.07444382">
        <name>Sällskapet (herrklubb)</name>
        <cmt>Blasieholmen. Mansorganisationer. Byggnader ritade av Johan Fredrik Åbom. Organisationer bildade 1800.
            Organisationer i Sverige. Prins Carl Philips beskydd.
        </cmt>
        <desc>Sällskapet (herrklubb)</desc>
        <link href="http://sv.wikipedia.org/wiki/Sällskapet_(herrklubb)">
            <text>Sällskapet (herrklubb)</text>
            <type>Wikipedia</type>
        </link>
    </wpt>
    <wpt lat="59.32583333" lon="18.07138889">
        <name>Tre Kronor (byggnad)</name>
        <cmt>Ej längre existerande torn i Sverige. Förstörda byggnadsverk. Gamla stans historia. Ej längre existerande
            borgar och slott i Sverige. Ej längre existerande byggnader i Gamla stan. Byggnader avbildade i Suecian.
            Stockholms historia.
        </cmt>
        <desc>Tre Kronor (byggnad)</desc>
        <link href="http://sv.wikipedia.org/wiki/Tre_Kronor_(byggnad)">
            <text>Tre Kronor (byggnad)</text>
            <type>Wikipedia</type>
        </link>
    </wpt>
    <wpt lat="59.33075556" lon="18.0751">
        <name>Blasieholmstorg</name>
        <cmt>Gator och torg på Norrmalm. Blasieholmen.</cmt>
        <desc>Blasieholmstorg</desc>
        <link href="http://sv.wikipedia.org/wiki/Blasieholmstorg">
            <text>Blasieholmstorg</text>
            <type>Wikipedia</type>
        </link>
    </wpt>
    <wpt lat="59.32919444" lon="18.10188889">
        <name>Framnäs udde</name>
        <cmt>Djurgården.</cmt>
        <desc>Framnäs udde</desc>
        <link href="http://sv.wikipedia.org/wiki/Framnäs_udde">
            <text>Framnäs udde</text>
            <type>Wikipedia</type>
        </link>
    </wpt>
    <wpt lat="59.325" lon="18.07055556">
        <name>Stortorget, Stockholm</name>
        <cmt>Gator och torg i Gamla stan.</cmt>
        <desc>Stortorget, Stockholm</desc>
        <link href="http://sv.wikipedia.org/wiki/Stortorget,_Stockholm">
            <text>Stortorget, Stockholm</text>
            <type>Wikipedia</type>
        </link>
    </wpt>
    <wpt lat="59.32527778" lon="18.07055556">
        <name>Börshuset</name>
        <cmt>Stockholms politiska historia. Sveriges ekonomiska historia. Byggnader i Gamla stan.</cmt>
        <desc>Börshuset</desc>
        <link href="http://sv.wikipedia.org/wiki/Börshuset">
            <text>Börshuset</text>
            <type>Wikipedia</type>
        </link>
    </wpt>
    <wpt lat="59.325025" lon="18.07134444">
        <name>Grillska huset</name>
        <cmt>Grill. Byggnader i Gamla stan.</cmt>
        <desc>Grillska huset</desc>
        <link href="http://sv.wikipedia.org/wiki/Grillska_huset">
            <text>Grillska huset</text>
            <type>Wikipedia</type>
        </link>
    </wpt>
    <wpt lat="59.32486111" lon="18.07027778">
        <name>Schantzska huset</name>
        <cmt>Byggnader i Gamla stan.</cmt>
        <desc>Schantzska huset</desc>
        <link href="http://sv.wikipedia.org/wiki/Schantzska_huset">
            <text>Schantzska huset</text>
            <type>Wikipedia</type>
        </link>
    </wpt>
    <wpt lat="59.32376389" lon="18.07204167">
        <name>Tyska S:ta Gertruds församling</name>
        <cmt>Församlingar i Stockholms kommun. Verksamheter i Gamla stan.</cmt>
        <desc>Tyska S:ta Gertruds församling</desc>
        <link href="http://sv.wikipedia.org/wiki/Tyska_S:ta_Gertruds_församling">
            <text>Tyska S:ta Gertruds församling</text>
            <type>Wikipedia</type>
        </link>
    </wpt>
    <wpt lat="59.3325" lon="18.07361111">
        <name>Chinateatern</name>
        <cmt>Nöjeslokaler i Stockholm. Teatrar i Stockholm. Byggnader på Norrmalm. Nedlagda biografer i Stockholm.</cmt>
        <desc>Chinateatern</desc>
        <link href="http://sv.wikipedia.org/wiki/Chinateatern">
            <text>Chinateatern</text>
            <type>Wikipedia</type>
        </link>
    </wpt>
    <wpt lat="59.32777778" lon="18.09722222">
        <name>Karl XV:s staty</name>
        <cmt>Ryttarstatyer i Sverige. Djurgården.</cmt>
        <desc>Karl XV:s staty</desc>
        <link href="http://sv.wikipedia.org/wiki/Karl_XV:s_staty">
            <text>Karl XV:s staty</text>
            <type>Wikipedia</type>
        </link>
    </wpt>
    <wpt lat="59.3275" lon="18.09916667">
        <name>Djurgårdsteatern</name>
        <cmt>Teatrar i Stockholm. Byggnader på Djurgården. Bränder i Stockholm. Teaterinstitutioner och teatergrupper.
            Svensk teater före 1900.
        </cmt>
        <desc>Djurgårdsteatern</desc>
        <link href="http://sv.wikipedia.org/wiki/Djurgårdsteatern">
            <text>Djurgårdsteatern</text>
            <type>Wikipedia</type>
        </link>
    </wpt>
    <wpt lat="59.32483292" lon="18.07033348">
        <name>Kåkbrinken</name>
        <cmt>Gator och torg i Gamla stan.</cmt>
        <desc>Kåkbrinken</desc>
        <link href="http://sv.wikipedia.org/wiki/Kåkbrinken">
            <text>Kåkbrinken</text>
            <type>Wikipedia</type>
        </link>
    </wpt>
    <wpt lat="59.32513889" lon="18.07472222">
        <name>Fiskartorget</name>
        <cmt>Historiska verksamheter i Gamla stan. Gator och torg i Gamla stan.</cmt>
        <desc>Fiskartorget</desc>
        <link href="http://sv.wikipedia.org/wiki/Fiskartorget">
            <text>Fiskartorget</text>
            <type>Wikipedia</type>
        </link>
    </wpt>
    <wpt lat="59.324875" lon="18.06883333">
        <name>Sven Vintappares gränd</name>
        <cmt>Gator och torg i Gamla stan.</cmt>
        <desc>Sven Vintappares gränd</desc>
        <link href="http://sv.wikipedia.org/wiki/Sven_Vintappares_gränd">
            <text>Sven Vintappares gränd</text>
            <type>Wikipedia</type>
        </link>
    </wpt>
    <wpt lat="59.32441667" lon="18.06997222">
        <name>Västerlånggatan</name>
        <cmt>Gator och torg i Gamla stan.</cmt>
        <desc>Västerlånggatan</desc>
        <link href="http://sv.wikipedia.org/wiki/Västerlånggatan">
            <text>Västerlånggatan</text>
            <type>Wikipedia</type>
        </link>
    </wpt>
    <wpt lat="59.32486111" lon="18.07113889">
        <name>Svartmangatan</name>
        <cmt>Gator och torg i Gamla stan.</cmt>
        <desc>Svartmangatan</desc>
        <link href="http://sv.wikipedia.org/wiki/Svartmangatan">
            <text>Svartmangatan</text>
            <type>Wikipedia</type>
        </link>
    </wpt>
    <wpt lat="59.32316667" lon="18.07186111">
        <name>Torgdragargränd</name>
        <cmt>Gator och torg i Gamla stan.</cmt>
        <desc>Torgdragargränd</desc>
        <link href="http://sv.wikipedia.org/wiki/Torgdragargränd">
            <text>Torgdragargränd</text>
            <type>Wikipedia</type>
        </link>
    </wpt>
    <wpt lat="59.33313889" lon="18.07566667">
        <name>Birger Jarlsgatan</name>
        <cmt>Gator och torg på Norrmalm. Birger jarl. Gator och torg på Östermalm. Gator och torg i Vasastan.</cmt>
        <desc>Birger Jarlsgatan</desc>
        <link href="http://sv.wikipedia.org/wiki/Birger_Jarlsgatan">
            <text>Birger Jarlsgatan</text>
            <type>Wikipedia</type>
        </link>
    </wpt>
    <wpt lat="59.36100006" lon="18.24197197">
        <name>Svanholmen</name>
        <cmt>Öar i Lidingö kommun.</cmt>
        <desc>Svanholmen</desc>
        <link href="http://sv.wikipedia.org/wiki/Svanholmen">
            <text>Svanholmen</text>
            <type>Wikipedia</type>
        </link>
    </wpt>
    <wpt lat="59.32555556" lon="18.07222222">
        <name>Järnpojke</name>
        <cmt>Skulpturer av Liss Eriksson. Skulpturer i Gamla stan.</cmt>
        <desc>Järnpojke</desc>
        <link href="http://sv.wikipedia.org/wiki/Järnpojke">
            <text>Järnpojke</text>
            <type>Wikipedia</type>
        </link>
    </wpt>
    <wpt lat="59.33300018" lon="18.08416748">
        <name>JP Larsson</name>
        <cmt>Östermalm. Företag bildade 1914. Svenska familjeföretag. Företag i Stockholms kommun.</cmt>
        <desc>JP Larsson</desc>
        <link href="http://sv.wikipedia.org/wiki/JP_Larsson">
            <text>JP Larsson</text>
            <type>Wikipedia</type>
        </link>
    </wpt>
    <wpt lat="59.32868056" lon="18.09755">
        <name>Villa Lusthusporten</name>
        <cmt>Byggnadsminnen i Stockholms kommun. Villor på Djurgården.</cmt>
        <desc>Villa Lusthusporten</desc>
        <link href="http://sv.wikipedia.org/wiki/Villa_Lusthusporten">
            <text>Villa Lusthusporten</text>
            <type>Wikipedia</type>
        </link>
    </wpt>
    <wpt lat="59.34833333" lon="18.10583333">
        <name>Finlandsparken</name>
        <cmt>Gärdet. Parker i Stockholms kommun.</cmt>
        <desc>Finlandsparken</desc>
        <link href="http://sv.wikipedia.org/wiki/Finlandsparken">
            <text>Finlandsparken</text>
            <type>Wikipedia</type>
        </link>
    </wpt>
    <wpt lat="59.33811951" lon="18.11509514">
        <name>Borgen, Stockholm</name>
        <cmt>Byggnader på Gärdet. Byggnader ritade av Fredrik Blom.</cmt>
        <desc>Borgen, Stockholm</desc>
        <link href="http://sv.wikipedia.org/wiki/Borgen,_Stockholm">
            <text>Borgen, Stockholm</text>
            <type>Wikipedia</type>
        </link>
    </wpt>
    <wpt lat="59.32372222" lon="18.07269444">
        <name>Ehrenstrahlska huset</name>
        <cmt>Svartmangatan. Byggnader i Gamla stan.</cmt>
        <desc>Ehrenstrahlska huset</desc>
        <link href="http://sv.wikipedia.org/wiki/Ehrenstrahlska_huset">
            <text>Ehrenstrahlska huset</text>
            <type>Wikipedia</type>
        </link>
    </wpt>
    <wpt lat="59.34852982" lon="18.15456963">
        <name>Childhoodhallen</name>
        <cmt>Gustaf Dalén. Byggnader i Lidingö kommun. Sportanläggningar i Sverige.</cmt>
        <desc>Childhoodhallen</desc>
        <link href="http://sv.wikipedia.org/wiki/Childhoodhallen">
            <text>Childhoodhallen</text>
            <type>Wikipedia</type>
        </link>
    </wpt>
    <wpt lat="59.33029722" lon="18.07728889">
        <name>Wallmans salonger</name>
        <cmt>Nöjeslokaler i Stockholm. Dansställen i Sverige. Företag inom underhållning. Blasieholmen.</cmt>
        <desc>Wallmans salonger</desc>
        <link href="http://sv.wikipedia.org/wiki/Wallmans_salonger">
            <text>Wallmans salonger</text>
            <type>Wikipedia</type>
        </link>
    </wpt>
    <wpt lat="59.36360931" lon="18.11499977">
        <name>Norra Kungsvägen</name>
        <cmt>Lidingö kommun.</cmt>
        <desc>Norra Kungsvägen</desc>
        <link href="http://sv.wikipedia.org/wiki/Norra_Kungsvägen">
            <text>Norra Kungsvägen</text>
            <type>Wikipedia</type>
        </link>
    </wpt>
    <wpt lat="59.35556111" lon="18.17401111">
        <name>Stockby</name>
        <cmt>Lidingös historia. Lidingö kommun.</cmt>
        <desc>Stockby</desc>
        <link href="http://sv.wikipedia.org/wiki/Stockby">
            <text>Stockby</text>
            <type>Wikipedia</type>
        </link>
    </wpt>
    <wpt lat="59.32486111" lon="18.07027778">
        <name>Seyfridtzska huset</name>
        <cmt>Byggnader i Gamla stan.</cmt>
        <desc>Seyfridtzska huset</desc>
        <link href="http://sv.wikipedia.org/wiki/Seyfridtzska_huset">
            <text>Seyfridtzska huset</text>
            <type>Wikipedia</type>
        </link>
    </wpt>
    <wpt lat="59.32972222" lon="18.11577778">
        <name>Rosendals iskällare</name>
        <cmt>Byggnader ritade av Fredrik Blom. Byggnader på Djurgården.</cmt>
        <desc>Rosendals iskällare</desc>
        <link href="http://sv.wikipedia.org/wiki/Rosendals_iskällare">
            <text>Rosendals iskällare</text>
            <type>Wikipedia</type>
        </link>
    </wpt>
    <wpt lat="59.32530556" lon="18.06883333">
        <name>Göran Hälsinges gränd</name>
        <cmt>Gator och torg i Gamla stan.</cmt>
        <desc>Göran Hälsinges gränd</desc>
        <link href="http://sv.wikipedia.org/wiki/Göran_Hälsinges_gränd">
            <text>Göran Hälsinges gränd</text>
            <type>Wikipedia</type>
        </link>
    </wpt>
    <wpt lat="59.33250046" lon="18.11583328">
        <name>Stockholmsutställningens reklammast</name>
        <cmt>1930 i Sverige. Reklam. Djurgården. Stockholms historia. Ljusskyltar i Stockholm.</cmt>
        <desc>Stockholmsutställningens reklammast</desc>
        <link href="http://sv.wikipedia.org/wiki/Stockholmsutställningens_reklammast">
            <text>Stockholmsutställningens reklammast</text>
            <type>Wikipedia</type>
        </link>
    </wpt>
    <wpt lat="59.33944444" lon="18.12333333">
        <name>Lindarängen</name>
        <cmt>Gärdet.</cmt>
        <desc>Lindarängen</desc>
        <link href="http://sv.wikipedia.org/wiki/Lindarängen">
            <text>Lindarängen</text>
            <type>Wikipedia</type>
        </link>
    </wpt>
    <wpt lat="59.33115833" lon="18.07621944">
        <name>Kungliga Musikaliska Akademiens hus</name>
        <cmt>Musik i Stockholm. Byggnadsminnen i Stockholms kommun. Byggnader ritade av Johan Fredrik Åbom. Byggnader på
            Blasieholmen. Konserthus i Sverige.
        </cmt>
        <desc>Kungliga Musikaliska Akademiens hus</desc>
        <link href="http://sv.wikipedia.org/wiki/Kungliga_Musikaliska_Akademiens_hus">
            <text>Kungliga Musikaliska Akademiens hus</text>
            <type>Wikipedia</type>
        </link>
    </wpt>
    <wpt lat="59.32596389" lon="18.07492778">
        <name>Wittmarckska huset</name>
        <cmt>Skeppsbron. Byggnader i Gamla stan.</cmt>
        <desc>Wittmarckska huset</desc>
        <link href="http://sv.wikipedia.org/wiki/Wittmarckska_huset">
            <text>Wittmarckska huset</text>
            <type>Wikipedia</type>
        </link>
    </wpt>
    <wpt lat="59.32438889" lon="18.07519444">
        <name>Drakens gränd</name>
        <cmt>Gator och torg i Gamla stan.</cmt>
        <desc>Drakens gränd</desc>
        <link href="http://sv.wikipedia.org/wiki/Drakens_gränd">
            <text>Drakens gränd</text>
            <type>Wikipedia</type>
        </link>
    </wpt>
    <wpt lat="59.32986069" lon="18.07230568">
        <name>Arsenalsteatern</name>
        <cmt>Teatrar i Stockholm.</cmt>
        <desc>Arsenalsteatern</desc>
        <link href="http://sv.wikipedia.org/wiki/Arsenalsteatern">
            <text>Arsenalsteatern</text>
            <type>Wikipedia</type>
        </link>
    </wpt>
    <wpt lat="59.33061111" lon="18.07313889">
        <name>Arsenalsgatan</name>
        <cmt>Gator och torg på Norrmalm. Blasieholmen. Gågator i Sverige.</cmt>
        <desc>Arsenalsgatan</desc>
        <link href="http://sv.wikipedia.org/wiki/Arsenalsgatan">
            <text>Arsenalsgatan</text>
            <type>Wikipedia</type>
        </link>
    </wpt>
    <wpt lat="59.32472229" lon="18.07052803">
        <name>Skomakargatan</name>
        <cmt>Gator och torg i Gamla stan.</cmt>
        <desc>Skomakargatan</desc>
        <link href="http://sv.wikipedia.org/wiki/Skomakargatan">
            <text>Skomakargatan</text>
            <type>Wikipedia</type>
        </link>
    </wpt>
    <wpt lat="59.33138889" lon="18.07444444">
        <name>Arsenalsgatan 6</name>
        <cmt>Historiska bankbyggnader i Sverige. Byggnader på Norrmalm.</cmt>
        <desc>Arsenalsgatan 6</desc>
        <link href="http://sv.wikipedia.org/wiki/Arsenalsgatan_6">
            <text>Arsenalsgatan 6</text>
            <type>Wikipedia</type>
        </link>
    </wpt>
    <wpt lat="59.33022222" lon="18.07467778">
        <name>Fersenska palatset</name>
        <cmt>Palats i Stockholm. Harry Friberg. Byggnadsminnen i Stockholms kommun. Byggnader på Blasieholmen.</cmt>
        <desc>Fersenska palatset</desc>
        <link href="http://sv.wikipedia.org/wiki/Fersenska_palatset">
            <text>Fersenska palatset</text>
            <type>Wikipedia</type>
        </link>
    </wpt>
    <wpt lat="59.32648087" lon="18.10321426">
        <name>Posthuset, Skansen</name>
        <cmt>Skansen. Virserum.</cmt>
        <desc>Posthuset, Skansen</desc>
        <link href="http://sv.wikipedia.org/wiki/Posthuset,_Skansen">
            <text>Posthuset, Skansen</text>
            <type>Wikipedia</type>
        </link>
    </wpt>
    <wpt lat="59.32763889" lon="18.07269444">
        <name>Bernadottebiblioteket</name>
        <cmt>Verksamheter i Gamla stan. Bibliotek i Stockholm. Kungliga hovstaterna. Stockholms slott.</cmt>
        <desc>Bernadottebiblioteket</desc>
        <link href="http://sv.wikipedia.org/wiki/Bernadottebiblioteket">
            <text>Bernadottebiblioteket</text>
            <type>Wikipedia</type>
        </link>
    </wpt>
    <wpt lat="59.32616111" lon="18.073925">
        <name>Flemingska palatset</name>
        <cmt>Byggnader i Gamla stan. Privatpalats i Stockholm. Byggnadsminnen i Stockholms kommun. Byggnader avbildade i
            Suecian.
        </cmt>
        <desc>Flemingska palatset</desc>
        <link href="http://sv.wikipedia.org/wiki/Flemingska_palatset">
            <text>Flemingska palatset</text>
            <type>Wikipedia</type>
        </link>
    </wpt>
    <wpt lat="59.33527778" lon="18.08944444">
        <name>Kurckan</name>
        <cmt>Ej längre existerande byggnader på Östermalm. Kvarnar i Stockholms län.</cmt>
        <desc>Kurckan</desc>
        <link href="http://sv.wikipedia.org/wiki/Kurckan">
            <text>Kurckan</text>
            <type>Wikipedia</type>
        </link>
    </wpt>
    <wpt lat="59.32491389" lon="18.075075">
        <name>Kvarteret Bacchus</name>
        <cmt>Kvarter i Gamla stan. Stockholms historia. Byggnader i Gamla stan.</cmt>
        <desc>Kvarteret Bacchus</desc>
        <link href="http://sv.wikipedia.org/wiki/Kvarteret_Bacchus">
            <text>Kvarteret Bacchus</text>
            <type>Wikipedia</type>
        </link>
    </wpt>
    <wpt lat="59.33349991" lon="18.10319519">
        <name>Artillerikyrkogården</name>
        <cmt>Begravningsplatser i Stockholm. Diplomatstaden. Östermalm.</cmt>
        <desc>Artillerikyrkogården</desc>
        <link href="http://sv.wikipedia.org/wiki/Artillerikyrkogården">
            <text>Artillerikyrkogården</text>
            <type>Wikipedia</type>
        </link>
    </wpt>
    <wpt lat="59.33071667" lon="18.07311111">
        <name>Gamla Jernkontoret</name>
        <cmt>Kungsträdgårdsgatan. Byggnader på Norrmalm. Byggnader ritade av Axel Kumlien.</cmt>
        <desc>Gamla Jernkontoret</desc>
        <link href="http://sv.wikipedia.org/wiki/Gamla_Jernkontoret">
            <text>Gamla Jernkontoret</text>
            <type>Wikipedia</type>
        </link>
    </wpt>
    <wpt lat="59.33472222" lon="18.08583333">
        <name>Kvarteret Neptunus, Östermalm</name>
        <cmt>Kvarter i Stockholm. Byggnader på Östermalm.</cmt>
        <desc>Kvarteret Neptunus, Östermalm</desc>
        <link href="http://sv.wikipedia.org/wiki/Kvarteret_Neptunus,_Östermalm">
            <text>Kvarteret Neptunus, Östermalm</text>
            <type>Wikipedia</type>
        </link>
    </wpt>
    <wpt lat="59.3415" lon="18.11773056">
        <name>Magasin III</name>
        <cmt>Privata museer i Stockholm. Byggnader i Stockholm. Privata konsthallar i Sverige. Konstmuseer och
            konsthallar i Stockholm. Tidigare förvaringsanläggningar i Sverige.
        </cmt>
        <desc>Magasin III</desc>
        <link href="http://sv.wikipedia.org/wiki/Magasin_III">
            <text>Magasin III</text>
            <type>Wikipedia</type>
        </link>
    </wpt>
    <wpt lat="59.33336111" lon="18.10711111">
        <name>Skarpögatan</name>
        <cmt>Gator och torg i Diplomatstaden.</cmt>
        <desc>Skarpögatan</desc>
        <link href="http://sv.wikipedia.org/wiki/Skarpögatan">
            <text>Skarpögatan</text>
            <type>Wikipedia</type>
        </link>
    </wpt>
    <wpt lat="59.33336111" lon="18.09938889">
        <name>Oxenstiernsgatan</name>
        <cmt>Gator och torg på Östermalm.</cmt>
        <desc>Oxenstiernsgatan</desc>
        <link href="http://sv.wikipedia.org/wiki/Oxenstiernsgatan">
            <text>Oxenstiernsgatan</text>
            <type>Wikipedia</type>
        </link>
    </wpt>
    <wpt lat="59.34972222" lon="18.09822222">
        <name>Tegeluddsvägen</name>
        <cmt>Gator och torg på Gärdet.</cmt>
        <desc>Tegeluddsvägen</desc>
        <link href="http://sv.wikipedia.org/wiki/Tegeluddsvägen">
            <text>Tegeluddsvägen</text>
            <type>Wikipedia</type>
        </link>
    </wpt>
    <wpt lat="59.33379364" lon="18.10733604">
        <name>Norges ambassad i Stockholm</name>
        <cmt>Relationer mellan Norge och Sverige. Bildanden 1905. Diplomatstaden. Ambassader i Stockholm. Byggnader i
            Diplomatstaden.
        </cmt>
        <desc>Norges ambassad i Stockholm</desc>
        <link href="http://sv.wikipedia.org/wiki/Norges_ambassad_i_Stockholm">
            <text>Norges ambassad i Stockholm</text>
            <type>Wikipedia</type>
        </link>
    </wpt>
    <wpt lat="59.33019167" lon="18.07525556">
        <name>Stallgatan</name>
        <cmt>Gator och torg på Norrmalm.</cmt>
        <desc>Stallgatan</desc>
        <link href="http://sv.wikipedia.org/wiki/Stallgatan">
            <text>Stallgatan</text>
            <type>Wikipedia</type>
        </link>
    </wpt>
    <wpt lat="59.33836111" lon="18.10316667">
        <name>Lindarängsvägen</name>
        <cmt>Gator och torg på Gärdet.</cmt>
        <desc>Lindarängsvägen</desc>
        <link href="http://sv.wikipedia.org/wiki/Lindarängsvägen">
            <text>Lindarängsvägen</text>
            <type>Wikipedia</type>
        </link>
    </wpt>
    <wpt lat="59.332925" lon="18.10369722">
        <name>Villa Bonde</name>
        <cmt>1925 i Sverige. Cyrillus Johansson. Arkitekturåret 1925. Villor i Diplomatstaden.</cmt>
        <desc>Villa Bonde</desc>
        <link href="http://sv.wikipedia.org/wiki/Villa_Bonde">
            <text>Villa Bonde</text>
            <type>Wikipedia</type>
        </link>
    </wpt>
    <wpt lat="59.32577778" lon="18.07505556">
        <name>Skeppar Karls gränd</name>
        <cmt>Gator och torg i Gamla stan.</cmt>
        <desc>Skeppar Karls gränd</desc>
        <link href="http://sv.wikipedia.org/wiki/Skeppar_Karls_gränd">
            <text>Skeppar Karls gränd</text>
            <type>Wikipedia</type>
        </link>
    </wpt>
    <wpt lat="59.32472222" lon="18.07194444">
        <name>Kvarteret Cepheus</name>
        <cmt>Kvarter i Gamla stan. Stockholms historia. Ej längre existerande byggnader i Gamla stan. Byggnader i Gamla
            stan.
        </cmt>
        <desc>Kvarteret Cepheus</desc>
        <link href="http://sv.wikipedia.org/wiki/Kvarteret_Cepheus">
            <text>Kvarteret Cepheus</text>
            <type>Wikipedia</type>
        </link>
    </wpt>
    <wpt lat="59.32583333" lon="18.07027778">
        <name>Storkyrkans tornur</name>
        <cmt>Ur. Gamla stan.</cmt>
        <desc>Storkyrkans tornur</desc>
        <link href="http://sv.wikipedia.org/wiki/Storkyrkans_tornur">
            <text>Storkyrkans tornur</text>
            <type>Wikipedia</type>
        </link>
    </wpt>
    <wpt lat="59.33029722" lon="18.07734444">
        <name>Drottning Victorias Örlogshem</name>
        <cmt>Hotell i Stockholm. Byggnader på Blasieholmen. Blasieholmen. Stiftelser i Sverige. Organisationer bildade
            1908.
        </cmt>
        <desc>Drottning Victorias Örlogshem</desc>
        <link href="http://sv.wikipedia.org/wiki/Drottning_Victorias_Örlogshem">
            <text>Drottning Victorias Örlogshem</text>
            <type>Wikipedia</type>
        </link>
    </wpt>
    <wpt lat="59.33428333" lon="18.10775278">
        <name>Storbritanniens ambassad i Stockholm</name>
        <cmt>Diplomatstaden. Relationer mellan Storbritannien och Sverige. Byggnader i Diplomatstaden. Ambassader i
            Stockholm.
        </cmt>
        <desc>Storbritanniens ambassad i Stockholm</desc>
        <link href="http://sv.wikipedia.org/wiki/Storbritanniens_ambassad_i_Stockholm">
            <text>Storbritanniens ambassad i Stockholm</text>
            <type>Wikipedia</type>
        </link>
    </wpt>
    <wpt lat="59.33452225" lon="18.10627174">
        <name>Tysklands ambassad i Stockholm</name>
        <cmt>Relationer mellan Sverige och Tyskland. Tysklands ambassader. Diplomatstaden. Ambassader i Stockholm.
            Byggnader i Diplomatstaden.
        </cmt>
        <desc>Tysklands ambassad i Stockholm</desc>
        <link href="http://sv.wikipedia.org/wiki/Tysklands_ambassad_i_Stockholm">
            <text>Tysklands ambassad i Stockholm</text>
            <type>Wikipedia</type>
        </link>
    </wpt>
    <wpt lat="59.33361053" lon="18.10555649">
        <name>USA:s ambassad i Stockholm</name>
        <cmt>USA:s ambassader. Bildanden 1782. Relationer mellan Sverige och USA. Ambassader i Stockholm.</cmt>
        <desc>USA:s ambassad i Stockholm</desc>
        <link href="http://sv.wikipedia.org/wiki/USA:s_ambassad_i_Stockholm">
            <text>USA:s ambassad i Stockholm</text>
            <type>Wikipedia</type>
        </link>
    </wpt>
    <wpt lat="59.33325" lon="18.10769444">
        <name>Djurgårdsbrunnsvägen</name>
        <cmt>Gator och torg på Gärdet. Djurgården.</cmt>
        <desc>Djurgårdsbrunnsvägen</desc>
        <link href="http://sv.wikipedia.org/wiki/Djurgårdsbrunnsvägen">
            <text>Djurgårdsbrunnsvägen</text>
            <type>Wikipedia</type>
        </link>
    </wpt>
    <wpt lat="59.32775278" lon="18.09461111">
        <name>Galärvarvskyrkogården</name>
        <cmt>Begravningsplatser i Stockholm. Djurgården. Galärvarvskyrkogården.</cmt>
        <desc>Galärvarvskyrkogården</desc>
        <link href="http://sv.wikipedia.org/wiki/Galärvarvskyrkogården">
            <text>Galärvarvskyrkogården</text>
            <type>Wikipedia</type>
        </link>
    </wpt>
    <wpt lat="59.33305556" lon="18.07444444">
        <name>Hallwylska museet</name>
        <cmt>Byggnader på Norrmalm. Privatpalats i Stockholm. Museer i Stockholm. Kulturhistoriska museer i Sverige.
            Byggnader ritade av Isak Gustaf Clason. Bostadshus. Statliga museer i Stockholm.
        </cmt>
        <desc>Hallwylska museet</desc>
        <link href="http://sv.wikipedia.org/wiki/Hallwylska_museet">
            <text>Hallwylska museet</text>
            <type>Wikipedia</type>
        </link>
    </wpt>
    <wpt lat="59.32466888" lon="18.07539368">
        <name>Hobelinska huset</name>
        <cmt>Skeppsbron. Byggnader i Gamla stan.</cmt>
        <desc>Hobelinska huset</desc>
        <link href="http://sv.wikipedia.org/wiki/Hobelinska_huset">
            <text>Hobelinska huset</text>
            <type>Wikipedia</type>
        </link>
    </wpt>
    <wpt lat="59.35166667" lon="18.10194444">
        <name>Kungseken, Hjorthagen</name>
        <cmt>Enskilda träd i Stockholm. Hjorthagen.</cmt>
        <desc>Kungseken, Hjorthagen</desc>
        <link href="http://sv.wikipedia.org/wiki/Kungseken,_Hjorthagen">
            <text>Kungseken, Hjorthagen</text>
            <type>Wikipedia</type>
        </link>
    </wpt>
    <wpt lat="59.33166667" lon="18.11583333">
        <name>Sjömannen</name>
        <cmt>Skulpturer i Stockholm.</cmt>
        <desc>Sjömannen</desc>
        <link href="http://sv.wikipedia.org/wiki/Sjömannen">
            <text>Sjömannen</text>
            <type>Wikipedia</type>
        </link>
    </wpt>
    <wpt lat="59.32527778" lon="18.07416667">
        <name>Fem små hus</name>
        <cmt>Restauranger i Stockholm. Verksamheter i Gamla stan.</cmt>
        <desc>Fem små hus</desc>
        <link href="http://sv.wikipedia.org/wiki/Fem_små_hus">
            <text>Fem små hus</text>
            <type>Wikipedia</type>
        </link>
    </wpt>
    <wpt lat="59.32589444" lon="18.06960278">
        <name>Axel Oxenstiernas palats</name>
        <cmt>Byggnader avbildade i Suecian. Privatpalats i Stockholm. Byggnadsminnen i Stockholms kommun. Byggnader i
            Gamla stan.
        </cmt>
        <desc>Axel Oxenstiernas palats</desc>
        <link href="http://sv.wikipedia.org/wiki/Axel_Oxenstiernas_palats">
            <text>Axel Oxenstiernas palats</text>
            <type>Wikipedia</type>
        </link>
    </wpt>
    <wpt lat="59.32620833" lon="18.07469167">
        <name>Stockholms telegrafstation</name>
        <cmt>Byggnader i Gamla stan. Byggnadsminnen i Stockholms kommun. Skeppsbron. Historiska offentliga byggnader i
            Sverige.
        </cmt>
        <desc>Stockholms telegrafstation</desc>
        <link href="http://sv.wikipedia.org/wiki/Stockholms_telegrafstation">
            <text>Stockholms telegrafstation</text>
            <type>Wikipedia</type>
        </link>
    </wpt>
    <wpt lat="59.33222222" lon="18.095">
        <name>Von Rosenska palatset</name>
        <cmt>Privatpalats i Stockholm. Byggnader på Östermalm. Byggnader ritade av Isak Gustaf Clason.</cmt>
        <desc>Von Rosenska palatset</desc>
        <link href="http://sv.wikipedia.org/wiki/Von_Rosenska_palatset">
            <text>Von Rosenska palatset</text>
            <type>Wikipedia</type>
        </link>
    </wpt>
    <wpt lat="59.32572174" lon="18.07263947">
        <name>Finska kyrkogränd</name>
        <cmt>Gator och torg i Gamla stan.</cmt>
        <desc>Finska kyrkogränd</desc>
        <link href="http://sv.wikipedia.org/wiki/Finska_kyrkogränd">
            <text>Finska kyrkogränd</text>
            <type>Wikipedia</type>
        </link>
    </wpt>
    <wpt lat="59.32333333" lon="18.07">
        <name>Kvarteret Pan</name>
        <cmt>Kvarter i Gamla stan. Stockholms historia. Historiska bankbyggnader i Sverige. Byggnader ritade av Johan
            Fredrik Åbom. Byggnader i Gamla stan.
        </cmt>
        <desc>Kvarteret Pan</desc>
        <link href="http://sv.wikipedia.org/wiki/Kvarteret_Pan">
            <text>Kvarteret Pan</text>
            <type>Wikipedia</type>
        </link>
    </wpt>
    <wpt lat="59.32720278" lon="18.07118056">
        <name>Festvåningen</name>
        <cmt>Alla sidor föreslagna att flyttas. Sidor föreslagna att flyttas 2015-12. Stockholms slott.</cmt>
        <desc>Festvåningen</desc>
        <link href="http://sv.wikipedia.org/wiki/Festvåningen">
            <text>Festvåningen</text>
            <type>Wikipedia</type>
        </link>
    </wpt>
    <wpt lat="59.34000015" lon="18.10333252">
        <name>Filmhuset</name>
        <cmt>Byggnader på Gärdet. Brutalistisk arkitektur. Film i Stockholm.</cmt>
        <desc>Filmhuset</desc>
        <link href="http://sv.wikipedia.org/wiki/Filmhuset">
            <text>Filmhuset</text>
            <type>Wikipedia</type>
        </link>
    </wpt>
    <wpt lat="59.33333333" lon="18.09333333">
        <name>Oscarskyrkan</name>
        <cmt>Religiösa byggnader invigda 1903. Kyrkobyggnader i Stockholms innerstad. Byggnader på Östermalm. Byggnader
            ritade av Gustaf Hermansson. Kyrkobyggnader i Stockholms stift.
        </cmt>
        <desc>Oscarskyrkan</desc>
        <link href="http://sv.wikipedia.org/wiki/Oscarskyrkan">
            <text>Oscarskyrkan</text>
            <type>Wikipedia</type>
        </link>
    </wpt>
    <wpt lat="59.32720278" lon="18.07118056">
        <name>Bernadottevåningen</name>
        <cmt>Stockholms slott.</cmt>
        <desc>Bernadottevåningen</desc>
        <link href="http://sv.wikipedia.org/wiki/Bernadottevåningen">
            <text>Bernadottevåningen</text>
            <type>Wikipedia</type>
        </link>
    </wpt>
    <wpt lat="59.34305573" lon="18.10499954">
        <name>Festen på Gärdet</name>
        <cmt>1970 i Sverige. Nedlagda musikfestivaler i Stockholm. Gärdet. Musikåret 1970. Musik i Stockholm. Progg.
        </cmt>
        <desc>Festen på Gärdet</desc>
        <link href="http://sv.wikipedia.org/wiki/Festen_på_Gärdet">
            <text>Festen på Gärdet</text>
            <type>Wikipedia</type>
        </link>
    </wpt>
    <wpt lat="59.32919444" lon="18.10188889">
        <name>Gamla Stockholm (kulisstad)</name>
        <cmt>Stockholm i kulturen. Djurgården. Stockholms historia. Utställningar i Sverige.</cmt>
        <desc>Gamla Stockholm (kulisstad)</desc>
        <link href="http://sv.wikipedia.org/wiki/Gamla_Stockholm_(kulisstad)">
            <text>Gamla Stockholm (kulisstad)</text>
            <type>Wikipedia</type>
        </link>
    </wpt>
    <wpt lat="59.33305556" lon="18.07388889">
        <name>Linderoths kalenderur</name>
        <cmt>Ur. Norrmalm. Stockholms historia.</cmt>
        <desc>Linderoths kalenderur</desc>
        <link href="http://sv.wikipedia.org/wiki/Linderoths_kalenderur">
            <text>Linderoths kalenderur</text>
            <type>Wikipedia</type>
        </link>
    </wpt>
    <wpt lat="59.35499954" lon="18.10333252">
        <name>Hjorthagens kyrka</name>
        <cmt>Religiösa byggnader invigda 1909. Kyrkobyggnader i Stockholms innerstad. Kyrkobyggnader i Stockholms stift.
            Byggnader i Hjorthagen.
        </cmt>
        <desc>Hjorthagens kyrka</desc>
        <link href="http://sv.wikipedia.org/wiki/Hjorthagens_kyrka">
            <text>Hjorthagens kyrka</text>
            <type>Wikipedia</type>
        </link>
    </wpt>
    <wpt lat="59.32480621" lon="18.07275009">
        <name>Kindstugatan</name>
        <cmt>Gator och torg i Gamla stan.</cmt>
        <desc>Kindstugatan</desc>
        <link href="http://sv.wikipedia.org/wiki/Kindstugatan">
            <text>Kindstugatan</text>
            <type>Wikipedia</type>
        </link>
    </wpt>
    <wpt lat="59.35413889" lon="18.22061111">
        <name>Käppala</name>
        <cmt>Käppala. Lidingö kommun.</cmt>
        <desc>Käppala</desc>
        <link href="http://sv.wikipedia.org/wiki/Käppala">
            <text>Käppala</text>
            <type>Wikipedia</type>
        </link>
    </wpt>
    <wpt lat="59.32508333" lon="18.07322222">
        <name>Köpmangatan</name>
        <cmt>Gator och torg i Gamla stan.</cmt>
        <desc>Köpmangatan</desc>
        <link href="http://sv.wikipedia.org/wiki/Köpmangatan">
            <text>Köpmangatan</text>
            <type>Wikipedia</type>
        </link>
    </wpt>
    <wpt lat="59.32705307" lon="18.0939579">
        <name>Spritmuseum</name>
        <cmt>Museer i Stockholm.</cmt>
        <desc>Spritmuseum</desc>
        <link href="http://sv.wikipedia.org/wiki/Spritmuseum">
            <text>Spritmuseum</text>
            <type>Wikipedia</type>
        </link>
    </wpt>
    <wpt lat="59.32722222" lon="18.09944444">
        <name>Hazeliusporten</name>
        <cmt>Skansen. Djurgården. Byggnader på Djurgården.</cmt>
        <desc>Hazeliusporten</desc>
        <link href="http://sv.wikipedia.org/wiki/Hazeliusporten">
            <text>Hazeliusporten</text>
            <type>Wikipedia</type>
        </link>
    </wpt>
    <wpt lat="59.348526" lon="18.09547234">
        <name>Jerum</name>
        <cmt>Byggnader på Gärdet. Illustrationsbehov-Stockholm.</cmt>
        <desc>Jerum</desc>
        <link href="http://sv.wikipedia.org/wiki/Jerum">
            <text>Jerum</text>
            <type>Wikipedia</type>
        </link>
    </wpt>
    <wpt lat="59.32480556" lon="18.06944444">
        <name>Yxsmedsgränd</name>
        <cmt>Gator och torg i Gamla stan.</cmt>
        <desc>Yxsmedsgränd</desc>
        <link href="http://sv.wikipedia.org/wiki/Yxsmedsgränd">
            <text>Yxsmedsgränd</text>
            <type>Wikipedia</type>
        </link>
    </wpt>
    <wpt lat="59.32611111" lon="18.10472222">
        <name>Skansens julmarknad</name>
        <cmt>Skansen. Återkommande evenemang i november. Återkommande evenemang med premiär 1903. Återkommande evenemang
            i december. Kultur och konst i Stockholm. Julmarknader. Jul i Sverige.
        </cmt>
        <desc>Skansens julmarknad</desc>
        <link href="http://sv.wikipedia.org/wiki/Skansens_julmarknad">
            <text>Skansens julmarknad</text>
            <type>Wikipedia</type>
        </link>
    </wpt>
    <wpt lat="59.336675" lon="18.10268056">
        <name>TV-huset, Stockholm</name>
        <cmt>Sveriges Television. Byggnader på Östermalm.</cmt>
        <desc>TV-huset, Stockholm</desc>
        <link href="http://sv.wikipedia.org/wiki/TV-huset,_Stockholm">
            <text>TV-huset, Stockholm</text>
            <type>Wikipedia</type>
        </link>
    </wpt>
    <wpt lat="59.32961111" lon="18.07766667">
        <name>Blasieholmsgatan</name>
        <cmt>Gator och torg på Norrmalm. Blasieholmen.</cmt>
        <desc>Blasieholmsgatan</desc>
        <link href="http://sv.wikipedia.org/wiki/Blasieholmsgatan">
            <text>Blasieholmsgatan</text>
            <type>Wikipedia</type>
        </link>
    </wpt>
    <wpt lat="59.33833313" lon="18.10944366">
        <name>Stockholms innerstad</name>
        <cmt>Riksintressen för kulturmiljövården i Stockholms län. Indelningar i Stockholms kommun.</cmt>
        <desc>Stockholms innerstad</desc>
        <link href="http://sv.wikipedia.org/wiki/Stockholms_innerstad">
            <text>Stockholms innerstad</text>
            <type>Wikipedia</type>
        </link>
    </wpt>
    <wpt lat="59.3525" lon="18.13638889">
        <name>Bodal, Lidingö</name>
        <cmt>Lidingö kommun.</cmt>
        <desc>Bodal, Lidingö</desc>
        <link href="http://sv.wikipedia.org/wiki/Bodal,_Lidingö">
            <text>Bodal, Lidingö</text>
            <type>Wikipedia</type>
        </link>
    </wpt>
    <wpt lat="59.32583333" lon="18.07222222">
        <name>Stora Bollhuset</name>
        <cmt>Gamla stans historia. Operahus i Sverige. Ej längre existerande byggnader i Gamla stan. Byggnader invigda
            under 1600-talet. Svensk teater före 1800.
        </cmt>
        <desc>Stora Bollhuset</desc>
        <link href="http://sv.wikipedia.org/wiki/Stora_Bollhuset">
            <text>Stora Bollhuset</text>
            <type>Wikipedia</type>
        </link>
    </wpt>
    <wpt lat="59.32983333" lon="18.07333333">
        <name>Kungsträdgårdsgatan</name>
        <cmt>Kungsträdgårdsgatan.</cmt>
        <desc>Kungsträdgårdsgatan</desc>
        <link href="http://sv.wikipedia.org/wiki/Kungsträdgårdsgatan">
            <text>Kungsträdgårdsgatan</text>
            <type>Wikipedia</type>
        </link>
    </wpt>
    <wpt lat="59.34000015" lon="18.10333252">
        <name>Svenska Filminstitutet</name>
        <cmt>Byggnader på Gärdet. Filmorganisationer. Gärdet. Svensk film. Organisationer bildade 1963. Peter Celsing.
        </cmt>
        <desc>Svenska Filminstitutet</desc>
        <link href="http://sv.wikipedia.org/wiki/Svenska_Filminstitutet">
            <text>Svenska Filminstitutet</text>
            <type>Wikipedia</type>
        </link>
    </wpt>
    <wpt lat="59.32511111" lon="18.06933333">
        <name>Jakob Sauers hus</name>
        <cmt>Byggnader i Gamla stan.</cmt>
        <desc>Jakob Sauers hus</desc>
        <link href="http://sv.wikipedia.org/wiki/Jakob_Sauers_hus">
            <text>Jakob Sauers hus</text>
            <type>Wikipedia</type>
        </link>
    </wpt>
    <wpt lat="59.32522202" lon="18.0692215">
        <name>Palmstedts hus</name>
        <cmt>Byggnader i Gamla stan.</cmt>
        <desc>Palmstedts hus</desc>
        <link href="http://sv.wikipedia.org/wiki/Palmstedts_hus">
            <text>Palmstedts hus</text>
            <type>Wikipedia</type>
        </link>
    </wpt>
    <wpt lat="59.32316667" lon="18.072">
        <name>Von der Lindeska huset</name>
        <cmt>Byggnader i Gamla stan. Privatpalats i Stockholm.</cmt>
        <desc>Von der Lindeska huset</desc>
        <link href="http://sv.wikipedia.org/wiki/Von_der_Lindeska_huset">
            <text>Von der Lindeska huset</text>
            <type>Wikipedia</type>
        </link>
    </wpt>
    <wpt lat="59.35256944" lon="18.10569444">
        <name>Värtaverket</name>
        <cmt>Ferdinand Boberg. Kraftvärmeverk i Sverige. Tekniska försörjningssystem i Stockholm. Byggnader i
            Hjorthagen.
        </cmt>
        <desc>Värtaverket</desc>
        <link href="http://sv.wikipedia.org/wiki/Värtaverket">
            <text>Värtaverket</text>
            <type>Wikipedia</type>
        </link>
    </wpt>
    <wpt lat="59.32729721" lon="18.10799408">
        <name>Högloftet och Nyloftet</name>
        <cmt>Skansen.</cmt>
        <desc>Högloftet och Nyloftet</desc>
        <link href="http://sv.wikipedia.org/wiki/Högloftet_och_Nyloftet">
            <text>Högloftet och Nyloftet</text>
            <type>Wikipedia</type>
        </link>
    </wpt>
    <wpt lat="59.33074951" lon="18.07738876">
        <name>Höganäsmagasinet</name>
        <cmt>Blasieholmen. Ej längre existerande byggnader på Norrmalm.</cmt>
        <desc>Höganäsmagasinet</desc>
        <link href="http://sv.wikipedia.org/wiki/Höganäsmagasinet">
            <text>Höganäsmagasinet</text>
            <type>Wikipedia</type>
        </link>
    </wpt>
    <wpt lat="59.33291667" lon="18.10422222">
        <name>Villa Wikström</name>
        <cmt>1925 i Sverige. Cyrillus Johansson. Arkitekturåret 1925. Officiella residens i Sverige. Villor i
            Diplomatstaden.
        </cmt>
        <desc>Villa Wikström</desc>
        <link href="http://sv.wikipedia.org/wiki/Villa_Wikström">
            <text>Villa Wikström</text>
            <type>Wikipedia</type>
        </link>
    </wpt>
    <wpt lat="59.33032778" lon="18.07323889">
        <name>Kungsträdgårdsgatan 4</name>
        <cmt>Bankbyggnader i Sverige. Byggnader ritade av Erik Josephson. Kungsträdgårdsgatan. Byggnader på Norrmalm.
            Svenska Handelsbanken.
        </cmt>
        <desc>Kungsträdgårdsgatan 4</desc>
        <link href="http://sv.wikipedia.org/wiki/Kungsträdgårdsgatan_4">
            <text>Kungsträdgårdsgatan 4</text>
            <type>Wikipedia</type>
        </link>
    </wpt>
    <wpt lat="59.332925" lon="18.10369722">
        <name>Turkiets ambassad i Stockholm</name>
        <cmt>Relationer mellan Sverige och Turkiet. Diplomatstaden. Ambassader i Stockholm.</cmt>
        <desc>Turkiets ambassad i Stockholm</desc>
        <link href="http://sv.wikipedia.org/wiki/Turkiets_ambassad_i_Stockholm">
            <text>Turkiets ambassad i Stockholm</text>
            <type>Wikipedia</type>
        </link>
    </wpt>
    <wpt lat="59.33002222" lon="18.07220278">
        <name>Karl XII:s torg</name>
        <cmt>Gator och torg på Norrmalm. Skulpturer i Stockholm. Norrmalm. Karl XII.</cmt>
        <desc>Karl XII:s torg</desc>
        <link href="http://sv.wikipedia.org/wiki/Karl_XII:s_torg">
            <text>Karl XII:s torg</text>
            <type>Wikipedia</type>
        </link>
    </wpt>
    <wpt lat="59.32527778" lon="18.07055556">
        <name>Siskeburen</name>
        <cmt>Nedlagda fängelser i Stockholm. Stockholms historia.</cmt>
        <desc>Siskeburen</desc>
        <link href="http://sv.wikipedia.org/wiki/Siskeburen">
            <text>Siskeburen</text>
            <type>Wikipedia</type>
        </link>
    </wpt>
    <wpt lat="59.32527778" lon="18.07286111">
        <name>Peder Fredags gränd</name>
        <cmt>Gator och torg i Gamla stan.</cmt>
        <desc>Peder Fredags gränd</desc>
        <link href="http://sv.wikipedia.org/wiki/Peder_Fredags_gränd">
            <text>Peder Fredags gränd</text>
            <type>Wikipedia</type>
        </link>
    </wpt>
    <wpt lat="59.32472229" lon="18.07472229">
        <name>Kvarteret Pollux</name>
        <cmt>Kvarter i Gamla stan. Stockholms historia. Byggnader i Gamla stan.</cmt>
        <desc>Kvarteret Pollux</desc>
        <link href="http://sv.wikipedia.org/wiki/Kvarteret_Pollux">
            <text>Kvarteret Pollux</text>
            <type>Wikipedia</type>
        </link>
    </wpt>
    <wpt lat="59.34749985" lon="18.09749985">
        <name>YK-huset</name>
        <cmt>Byggnader på Gärdet.</cmt>
        <desc>YK-huset</desc>
        <link href="http://sv.wikipedia.org/wiki/YK-huset">
            <text>YK-huset</text>
            <type>Wikipedia</type>
        </link>
    </wpt>
    <wpt lat="59.33027778" lon="18.07333333">
        <name>Hamiltonska huset, Kungsträdgårdsgatan</name>
        <cmt>Ej längre existerande byggnader på Norrmalm. Kungsträdgårdsgatan.</cmt>
        <desc>Hamiltonska huset, Kungsträdgårdsgatan</desc>
        <link href="http://sv.wikipedia.org/wiki/Hamiltonska_huset,_Kungsträdgårdsgatan">
            <text>Hamiltonska huset, Kungsträdgårdsgatan</text>
            <type>Wikipedia</type>
        </link>
    </wpt>
    <wpt lat="59.33222222" lon="18.10069444">
        <name>Ungerns ambassad i Stockholm</name>
        <cmt>Diplomatstaden. Relationer mellan Sverige och Ungern. Ambassader i Stockholm.</cmt>
        <desc>Ungerns ambassad i Stockholm</desc>
        <link href="http://sv.wikipedia.org/wiki/Ungerns_ambassad_i_Stockholm">
            <text>Ungerns ambassad i Stockholm</text>
            <type>Wikipedia</type>
        </link>
    </wpt>
    <wpt lat="59.32805634" lon="18.07733345">
        <name>Vingarna (skulptur)</name>
        <cmt>Skulpturer i Stockholms kommun. Skulpturer på Millesgården. Skulpturer i Göteborgs kommun. Skulpturer av
            Carl Milles. Skulpturer i Uppsala kommun.
        </cmt>
        <desc>Vingarna (skulptur)</desc>
        <link href="http://sv.wikipedia.org/wiki/Vingarna_(skulptur)">
            <text>Vingarna (skulptur)</text>
            <type>Wikipedia</type>
        </link>
    </wpt>
    <wpt lat="59.35777778" lon="18.10388889">
        <name>Ropsten</name>
        <cmt>Lidingös historia. Hjorthagen.</cmt>
        <desc>Ropsten</desc>
        <link href="http://sv.wikipedia.org/wiki/Ropsten">
            <text>Ropsten</text>
            <type>Wikipedia</type>
        </link>
    </wpt>
    <wpt lat="59.32538889" lon="18.07333333">
        <name>Staffan Sasses gränd</name>
        <cmt>Gator och torg i Gamla stan.</cmt>
        <desc>Staffan Sasses gränd</desc>
        <link href="http://sv.wikipedia.org/wiki/Staffan_Sasses_gränd">
            <text>Staffan Sasses gränd</text>
            <type>Wikipedia</type>
        </link>
    </wpt>
    <wpt lat="59.33196389" lon="18.08743333">
        <name>Bünsowska huset</name>
        <cmt>Byggnader på Östermalm. Byggnader ritade av Isak Gustaf Clason.</cmt>
        <desc>Bünsowska huset</desc>
        <link href="http://sv.wikipedia.org/wiki/Bünsowska_huset">
            <text>Bünsowska huset</text>
            <type>Wikipedia</type>
        </link>
    </wpt>
    <wpt lat="59.32733333" lon="18.09036111">
        <name>Finngrundet</name>
        <cmt>Svenska fyrskepp. Fartyg sjösatta 1903. Fartyg byggda i Gävle. Djurgården.</cmt>
        <desc>Finngrundet</desc>
        <link href="http://sv.wikipedia.org/wiki/Finngrundet">
            <text>Finngrundet</text>
            <type>Wikipedia</type>
        </link>
    </wpt>
    <wpt lat="59.3235" lon="18.07297778">
        <name>Sankt Nicolai skola</name>
        <cmt>Ej längre existerande skolor i Stockholm. Historiska verksamheter i Gamla stan. Verksamheter i Gamla stan.
            Svartmangatan. Stockholms historia.
        </cmt>
        <desc>Sankt Nicolai skola</desc>
        <link href="http://sv.wikipedia.org/wiki/Sankt_Nicolai_skola">
            <text>Sankt Nicolai skola</text>
            <type>Wikipedia</type>
        </link>
    </wpt>
    <wpt lat="59.33355556" lon="18.09455556">
        <name>Ulrikagatan</name>
        <cmt>Gator och torg på Östermalm.</cmt>
        <desc>Ulrikagatan</desc>
        <link href="http://sv.wikipedia.org/wiki/Ulrikagatan">
            <text>Ulrikagatan</text>
            <type>Wikipedia</type>
        </link>
    </wpt>
    <wpt lat="59.32581711" lon="18.07053566">
        <name>Sankt Göran och draken, Gamla stan</name>
        <cmt>Gamla stan. Katolsk konst. Fontäner i Stockholm. Skulpturer från 1400-talet. Skulpturer i Stockholm.
            Skulpturer i Gamla stan.
        </cmt>
        <desc>Sankt Göran och draken, Gamla stan</desc>
        <link href="http://sv.wikipedia.org/wiki/Sankt_Göran_och_draken,_Gamla_stan">
            <text>Sankt Göran och draken, Gamla stan</text>
            <type>Wikipedia</type>
        </link>
    </wpt>
    <wpt lat="59.32463889" lon="18.07130556">
        <name>Mäster Olofsgården</name>
        <cmt>Byggnader i Gamla stan. Verksamheter i Gamla stan. Svartmangatan.</cmt>
        <desc>Mäster Olofsgården</desc>
        <link href="http://sv.wikipedia.org/wiki/Mäster_Olofsgården">
            <text>Mäster Olofsgården</text>
            <type>Wikipedia</type>
        </link>
    </wpt>
    <wpt lat="59.33222222" lon="18.10069444">
        <name>Villa Gumælius</name>
        <cmt>Gumaelius. Villor i Diplomatstaden.</cmt>
        <desc>Villa Gumælius</desc>
        <link href="http://sv.wikipedia.org/wiki/Villa_Gumælius">
            <text>Villa Gumælius</text>
            <type>Wikipedia</type>
        </link>
    </wpt>
    <wpt lat="59.33305556" lon="18.07388889">
        <name>Sveriges Kreditbank</name>
        <cmt>Ej längre existerande svenska affärsbanker. Banker upplösta 1974. Nordea. Banker bildade 1923.</cmt>
        <desc>Sveriges Kreditbank</desc>
        <link href="http://sv.wikipedia.org/wiki/Sveriges_Kreditbank">
            <text>Sveriges Kreditbank</text>
            <type>Wikipedia</type>
        </link>
    </wpt>
    <wpt lat="59.32739722" lon="18.07100278">
        <name>Museum Tre Kronor</name>
        <cmt>Stockholms slott. Museer i Stockholm. Verksamheter i Gamla stan.</cmt>
        <desc>Museum Tre Kronor</desc>
        <link href="http://sv.wikipedia.org/wiki/Museum_Tre_Kronor">
            <text>Museum Tre Kronor</text>
            <type>Wikipedia</type>
        </link>
    </wpt>
    <wpt lat="59.33236111" lon="18.10375">
        <name>Villa Josephson</name>
        <cmt>Arkitekturåret 1926. Officiella residens i Sverige. 1926 i Sverige. Byggnader ritade av Erik Josephson.
            Villor i Diplomatstaden.
        </cmt>
        <desc>Villa Josephson</desc>
        <link href="http://sv.wikipedia.org/wiki/Villa_Josephson">
            <text>Villa Josephson</text>
            <type>Wikipedia</type>
        </link>
    </wpt>
    <wpt lat="59.35569382" lon="18.18958282">
        <name>Västra Långängskärret</name>
        <cmt>Insjöar i Lidingö kommun. Insjöar i Uppland. Lidingös historia.</cmt>
        <desc>Västra Långängskärret</desc>
        <link href="http://sv.wikipedia.org/wiki/Västra_Långängskärret">
            <text>Västra Långängskärret</text>
            <type>Wikipedia</type>
        </link>
    </wpt>
    <wpt lat="59.32916667" lon="18.09361111">
        <name>Nordiska museet</name>
        <cmt>Byggnader på Djurgården. Museer i Stockholm. Kulturhistoriska museer i Sverige. Museer invigda 1873.
            Arbetslivsmuseer i Sverige. Byggnader ritade av Isak Gustaf Clason. Centralmuseer i Sverige. Djurgården.
        </cmt>
        <desc>Nordiska museet</desc>
        <link href="http://sv.wikipedia.org/wiki/Nordiska_museet">
            <text>Nordiska museet</text>
            <type>Wikipedia</type>
        </link>
    </wpt>
    <wpt lat="59.32527778" lon="18.07416667">
        <name>Kvarteret Python</name>
        <cmt>Kvarter i Gamla stan. Stockholms historia. Byggnader i Gamla stan.</cmt>
        <desc>Kvarteret Python</desc>
        <link href="http://sv.wikipedia.org/wiki/Kvarteret_Python">
            <text>Kvarteret Python</text>
            <type>Wikipedia</type>
        </link>
    </wpt>
    <wpt lat="59.32486111" lon="18.07547222">
        <name>Tottieska huset</name>
        <cmt>Byggnader i Gamla stan. Skeppsbron. Ej längre existerande byggnader i Gamla stan. Hebbe.</cmt>
        <desc>Tottieska huset</desc>
        <link href="http://sv.wikipedia.org/wiki/Tottieska_huset">
            <text>Tottieska huset</text>
            <type>Wikipedia</type>
        </link>
    </wpt>
    <wpt lat="59.33594444" lon="18.09955556">
        <name>Gyllenstiernsgatan</name>
        <cmt>Gator och torg på Östermalm.</cmt>
        <desc>Gyllenstiernsgatan</desc>
        <link href="http://sv.wikipedia.org/wiki/Gyllenstiernsgatan">
            <text>Gyllenstiernsgatan</text>
            <type>Wikipedia</type>
        </link>
    </wpt>
    <wpt lat="59.34888889" lon="18.10722222">
        <name>Värtans brandstation</name>
        <cmt>Gärdet. Brandstationer i Stockholm.</cmt>
        <desc>Värtans brandstation</desc>
        <link href="http://sv.wikipedia.org/wiki/Värtans_brandstation">
            <text>Värtans brandstation</text>
            <type>Wikipedia</type>
        </link>
    </wpt>
    <wpt lat="59.32513889" lon="18.07438889">
        <name>Kvarteret Diana</name>
        <cmt>Kvarter i Gamla stan. Stockholms historia. Byggnader i Gamla stan.</cmt>
        <desc>Kvarteret Diana</desc>
        <link href="http://sv.wikipedia.org/wiki/Kvarteret_Diana">
            <text>Kvarteret Diana</text>
            <type>Wikipedia</type>
        </link>
    </wpt>
    <wpt lat="59.33111111" lon="18.07138889">
        <name>Kungsträdgården</name>
        <cmt>Norrmalm. Platser avbildade i Suecian. Ugglan. Fontäner i Stockholm. Parker i Stockholms kommun.</cmt>
        <desc>Kungsträdgården</desc>
        <link href="http://sv.wikipedia.org/wiki/Kungsträdgården">
            <text>Kungsträdgården</text>
            <type>Wikipedia</type>
        </link>
    </wpt>
    <wpt lat="59.32944444" lon="18.07638889">
        <name>Bolinderska palatset</name>
        <cmt>Byggnader ritade av Helgo Zettervall. Byggnader på Blasieholmen. Palats i Stockholm.</cmt>
        <desc>Bolinderska palatset</desc>
        <link href="http://sv.wikipedia.org/wiki/Bolinderska_palatset">
            <text>Bolinderska palatset</text>
            <type>Wikipedia</type>
        </link>
    </wpt>
    <wpt lat="59.32523611" lon="18.07540278">
        <name>Sutthoffska palatset</name>
        <cmt>Skeppsbron. Byggnader i Gamla stan.</cmt>
        <desc>Sutthoffska palatset</desc>
        <link href="http://sv.wikipedia.org/wiki/Sutthoffska_palatset">
            <text>Sutthoffska palatset</text>
            <type>Wikipedia</type>
        </link>
    </wpt>
    <wpt lat="59.35068333" lon="18.14306944">
        <name>Carl Malmstensskolan</name>
        <cmt>Larsberg. Utbildningsinstitutioner bildade 1930. Byggnader i Lidingö kommun. Utbildning i Stockholm. Carl
            Malmsten. Skolor i Sverige.
        </cmt>
        <desc>Carl Malmstensskolan</desc>
        <link href="http://sv.wikipedia.org/wiki/Carl_Malmstensskolan">
            <text>Carl Malmstensskolan</text>
            <type>Wikipedia</type>
        </link>
    </wpt>
    <wpt lat="59.35068333" lon="18.14306944">
        <name>Bodals gård</name>
        <cmt>Carl Malmsten. Byggnader i Lidingö kommun. Lidingös historia.</cmt>
        <desc>Bodals gård</desc>
        <link href="http://sv.wikipedia.org/wiki/Bodals_gård">
            <text>Bodals gård</text>
            <type>Wikipedia</type>
        </link>
    </wpt>
    <wpt lat="59.33203125" lon="18.0724144">
        <name>Thulehuset, Kungsträdgårdsgatan</name>
        <cmt>Kungsträdgårdsgatan. Byggnader ritade av Erik Lallerstedt. Byggnader på Norrmalm.</cmt>
        <desc>Thulehuset, Kungsträdgårdsgatan</desc>
        <link href="http://sv.wikipedia.org/wiki/Thulehuset,_Kungsträdgårdsgatan">
            <text>Thulehuset, Kungsträdgårdsgatan</text>
            <type>Wikipedia</type>
        </link>
    </wpt>
    <wpt lat="59.3413887" lon="18.11916733">
        <name>Banan-Kompaniet</name>
        <cmt>Svenska livsmedelsföretag. Byggnader på Gärdet. Företag bildade 1909.</cmt>
        <desc>Banan-Kompaniet</desc>
        <link href="http://sv.wikipedia.org/wiki/Banan-Kompaniet">
            <text>Banan-Kompaniet</text>
            <type>Wikipedia</type>
        </link>
    </wpt>